stop_id,stop_code,stop_name,stop_desc,stop_lat,stop_lon,zone_id,stop_url,location_type,parent_station
1,Ci61SB,MLK JR BLVD  & 61ST ST N,N.CINCINNATI AVE & E 61ST ST N,36.243002,-95.993561,,,,
63,Ch5S,CHEYENNE/5TH S-NW,,36.150329,-95.992557,,,,
133,WHM,WOODLAND HILLS MALL,WOODLAND HILLS MALL & E 68TH ST S,36.065248,-95.882372,,,,
153,Me21N,S MEMORIAL DR&E 21ST ST S,N MEMORIAL DR & E 21ST ST S,36.133224,-95.886407,,,,
257,Me32S,S MEMORIAL DR&E 31ST ST S,S MEMORIAL DR & E 31ST PL S,36.117131,-95.886759,,,,
267,Me51S,S MEMORIAL DR&E 51ST ST S,S MEMORIAL DR & E 51ST ST S,36.089664,-95.886645,,,,
276,WLM 81ST,81ST STREET WAL-MART,S YORKTOWN AVE & E 81ST ST S,36.046921,-95.960904,,,,
287,InPlNB,INHOFE PLAZA,S NEWPORT AVE & E 66TH PL S,36.067526,-95.977872,,,,
304,Pe41NB,S PEORIA AVE&E 41ST  ST S,S PEORIA AVE & E 41ST ST S,36.104536,-95.97551,,,,
320,Pe11NB,S PEORIA AVE&E 11TH ST S,S PEORIA AVE & E 11TH ST S,36.14771,-95.975433,,,,
343,PeViNB,PEORIA & VIRGIN,N PEORIA AVE & E VIRGIN ST,36.184149,-95.975668,,,,
396,6BosEB,E 6TH ST S&S BOSTON AVE,S BOSTON AVE & E 6TH ST S,36.150903,-95.98823,,,,
403,Pe6S,PEORIA/6TH S-SW,,36.151968,-95.975762,,,,
406,Pe11SB,PEORIA & 11TH ST S,S PEORIA AVE & E 11TH ST S,36.147637,-95.975836,,,,
426,Pe41SB,S PEORIA AVE&E 41ST ST S,S PEORIA AVE & E 41ST ST S,36.104151,-95.975878,,,,
530,11thGarn,11TH & GARNETT,S GARNETT RD & E 11TH ST S,36.147697,-95.850881,,,,
548,11/SherW,E 11TH ST S&S SHERIDAN RD,S SHERIDAN AVE & E 11TH ST S,36.148086,-95.904735,,,,
555,11YalWB,E 11TH ST S&S YALE AVE,S YALE AVE & E 11TH ST S,36.147875,-95.922387,,,,
575,11UtWB,E 11TH ST S&S UTICA AVE,S UTICA AVE & E 11TH ST S,36.147916,-95.967325,,,,
579,11PeWB,11TH/PEORIA W-NW,,36.148119,-95.975928,,,,
732,Le81NB,LEWIS & 81ST ST S,S LEWIS AVE & E 81ST ST S,36.046443,-95.957487,,,,
745,Le51N,LEWIS & 51ST ST S,S LEWIS AVE & E 51ST ST S,36.089868,-95.957469,,,,
764,Le21NB,LEWIS & 21ST ST S,S LEWIS AVE & E 21ST ST S,36.132827,-95.957809,,,,
791,ApLeEB,APACHE & LEWIS,N LEWIS AVE & E APACHE ST,36.191286,-95.957515,,,,
795,TCC NE,TULSA COMMUNITY COLLEGE - NE CAMPUS,N HARVARD AVE & E 30TH ST N,36.193949,-95.938692,,,,
826,Le21SB,LEWIS & 21ST ST S,S LEWIS AVE & E 22ND ST S,36.13255,-95.957798,,,,
849,Le81SB,LEWIS & 81ST ST S,S LEWIS AVE & E 81ST ST S,36.046166,-95.957498,,,,
1033,15Bu,15TH & BOULDER,S BOULDER AVE & E 15TH ST S,36.140398,-95.98782,,,,
1063,15/ShE,S SHERIDAN RD&E 15TH ST S,S SHERIDAN AVE & E 15TH ST S,36.140194,-95.904389,,,,
1208,SW25,SOUTHWEST BLD/25TH,,36.125949,-96.006588,,,,
1244,49/Jack,49TH/JACKSON EB,,36.092065,-95.999786,,,,
1286,StFrSB,ST. FRANCIS HOSPITAL,,36.073116,-95.918109,,,,
1322,21UtEB,21ST ST S & UTICA,S UTICA AVE & E 21ST ST S,36.133227,-95.96679,,,,
1455,PiYaWB,E PINE ST&N YALE AVE,N YALE AVE & E PINE ST,36.177207,-95.922676,,,,
1469,PiLeWB,E PINE ST&N LEWIS AVE,N LEWIS AVE & E PINE ST,36.177268,-95.958376,,,,
1490,21UtSB,E 21ST ST S&S UTICA AVE,S UTICA AVE & E 21ST ST S,36.132798,-95.96679,,,,
1593,21BoEB,S BOULDER AVE&W 21ST ST S,W 21ST ST S & S BOULDER AVE,36.133328,-95.988813,,,,
1601,Ut21NB,S UTICA AVE&E 21ST ST S,S UTICA AVE & E 21ST ST S,36.133093,-95.966611,,,,
1655,MeAPN,MEMORIAL & ADMIRAL,N MEMORIAL DR & E ADMIRAL PL,36.160635,-95.886194,,,,
1697,Ha41NB,S HARVARD AVE&E 41ST ST S,S HARVARD AVE & E 41ST ST S,36.104247,-95.939697,,,,
1857,PiCiWB,E PINE ST & MARTIN LUTHER KING JR BLVD,N CINCINNATI AVE & E PINE ST,36.177018,-95.994985,,,,
1890,Ha21SB,S HARVARD AVE&E 21ST ST S,S HARVARD AVE & E 21ST ST S,36.133027,-95.940493,,,,
1944,Pine/Mem,PINE & MEMORIAL,N MEMORIAL DR & E PINE ST,36.176957,-95.886448,,,,
1952,137/24pl,S 137TH E AVE &E 24TH PL,S 137TH E AVE & E 24TH PL,36.127287,-95.823415,,,,
1968,31MeWB,S MEMORIAL DR&E 31ST ST S,S MEMORIAL DR & E 31ST ST S,36.118595,-95.886717,,,,
2151,ViRoEB,VIRGIN & ROCKFORD,,36.184221,-95.971741,,,,
2179,36NPeEB,36TH ST N & PEORIA,N PEORIA AVE & E 36TH ST N,36.205791,-95.975209,,,,
2264,Adm/129,E ADMIRAL PL&N 129TH E AVE,S 129TH E AVE & E ADMIRAL PL,36.16043,-95.833195,,,,
2280,Bos6N,BOSTON/6TH N-NE,,36.151202,-95.988344,,,,
2454,Ba  145,BATTLE CREEK CHURCH,S 145TH E AVE & W GRANGER ST N,36.08521,-95.814026,,,,
2456,Bo7NB,S BOSTON AVE&E 7TH ST S,S BOSTON AVE & E 7TH ST S,36.149559,-95.987468,,,,
2457,1MaiWB,1ST ST S & MAIN,S MAIN ST & E 1ST ST S,36.155623,-95.991511,,,,
2458,Ma10SB,S MAIN ST&W 10TH ST S,S MAIN ST & E 10TH ST S,36.146416,-95.987252,,,,
2645,TCC  SE,TULSA COMMUNITY COLLEGE SOUTH CAMPUS,,36.045621,-95.863307,,,,
2646,Ci-61NB,MARTIN LUTHER KING JR BLVD & 61ST ST N,N CINCINNATI AVE & E 61ST ST N,36.243087,-95.993096,,,,
2649,WeViEW,WESTVIEW CLINIC,N CINCINNATI AVE & E 36TH ST N,36.206349,-95.995284,,,,
2713,10MaWB,10TH & MAIN,S MAIN ST & E 10TH ST S,36.146416,-95.987252,,,,
2740,Chy5SB,5TH & CHEYENNE,S CHEYENNE AVE & W 5TH ST S,36.150361,-95.992111,,,,
2745,Ma10EB,MAIN & 10TH ST S,S MAIN ST & E 10TH ST S,36.146416,-95.987252,,,,
2757,InhofePl,INHOFE PLAZA,S NEWPORT AVE & E 64TH ST S,36.070258,-95.977916,,,,
2786,Un41NB,UNION/41ST N-NE,W 41ST ST & S UNION AVE,36.104287,-96.01114,,,,
2896,DBAY11,DAS BAY 11,,36.15199,-95.993254,,,,
3107,Le36NN,36TH ST N & LEWIS AVE,N LEWIS AVE & E 36 ST N,36.205994,-95.957892,,,,
3130,ApYaEB,YALE & APACHE,N YALE AVE & E APACHE ST,36.191645,-95.922641,,,,
3164,51  129,51ST/129TH E AV E-NE,E 51ST ST & S 129 EAST AVE,36.089692,-95.832799,,,,
3175,61  MENE,S MEMORIAL DR&E 61ST ST S,E 61ST ST & S MEMORIAL DR,36.075368,-95.886273,,,,
3194,YA41SB,S YALE AVE&E 41ST ST S,S YALE AVE & E 41ST ST S,36.10414,-95.921842,,,,
3200,Le88SB,S LEWIS AVE & E 88TH ST S,S LEWIS AVE & E MAGNOLIA DR,36.036109,-95.954687,,,,
3212,49Den-W,49TH ST N & DENVER,N DENVER AVE & W 49 ST N,36.224094,-95.997089,,,,
3213,Hart56NB,HARTFORD & 56TH ST N,E 56 ST N & N GARRISON PL,36.235013,-95.985345,,,,
3224,49WWMSB,49TH W AVE WAREHOUSE MKT,S 49TH W AVE & E CHARLES PAGE BLVD,36.14988,-96.046669,,,,
3237,EdGiWB,GILCREASE DR & EDISON,N 125TH W AVE & W EDISON ST,36.161224,-96.019778,,,,
3238,GiCPBSB,CHARLES PAGE BLVD & 25TH W AVE,S 25TH W AVE & E CHARLES PAGE BLVD,36.15174,-96.020164,,,,
3239,CP65WB,65TH W AVE. & CHARLES PAGE BLVD,S 65TH W AVE & E CHARLES PAGE BLVD,36.147343,-96.064803,,,,
3250,Bd21SB,S BOULDER AVE W & W 21ST ST S,S BOULDER AVE & W 21ST ST S,36.132882,-95.98871,,,,
3257,PiYaEB,E PINE ST&N YALE AVE,N YALE AVE & E PINE ST,36.177029,-95.922115,,,,
3260,41GaEB,E 41ST ST S&S GARNETT RD,,36.104574,-95.850938,,,,
3282,21BoWB,W 21ST ST S&S BOULDER,S BOULDER AVE & W 21ST ST S,36.132972,-95.988598,,,,
3299,Sh51SB,S SHERIDAN RD&E 51ST ST S,,36.090437,-95.904678,,,,
3590,Wh73N,73RD ST S & WHEELING AVE,S WHEELING AVE & E 73RD ST S,36.057539,-95.963587,,,,
3612,137/24S,137TH EA/24TH S-SW,S 137TH E AVE & E 24TH ST S,36.128894,-95.823059,,,,
3641,StFrNB,ST. FRANCIS HOSPITAL,S ST FRANCIS DR & E 63RD ST S,36.073116,-95.918109,,,,
3732,Ch5SB,CHEYENNE AVE & 5TH ST S,S CHEYENNE AVE & W 5TH ST S,36.150491,-95.992378,,,,
3747,3Lew-WB,3RD/LEWIS W-NW,,36.156747,-95.959169,,,,
3805,PiMeW,E PINE ST&MEMORIAL,N MEMORIAL DR & E PINE ST,36.177144,-95.886808,,,,
3912,49WTaW,49TH W/TACOMA W-NW,,36.092423,-96.009847,,,,
3915,Un61S,UNION/61ST W S-SW,,36.075804,-96.011556,,,,
3918,71ShE,E 71ST ST S&S SHERIDAN RD,71ST & SHERIDAN E -SE,36.061006,-95.905176,,,,
4012,OsFa,FAIRVIEW OSAGE,N OSAGE DR & W FAIRVIEW ST,36.162763,-96.001725,,,,
4037,Pitt4 th,E 4TH ST S& PITTSBURGH AVE,S PITTSBURGH AVE & E 4TH ST S,36.155965,-95.931395,,,,
4085,Pe  46N,46TH ST N & PEORIA,N PEORIA AVE & E 46TH ST N,36.220312,-95.975329,,,,
4109,AquJ,JENKS AQUARIUM,AQUARIUM DR & E 101ST ST S,36.019758,-95.959349,,,,
4114,MainElJ,MAIN & ELM,S ELM ST & E MAIN ST,36.022435,-95.975511,,,,
4116,JaCC,COUNTRY CLUB DR &W JASPER ST,COUNTRY CLUB DR & W JASPER ST,36.167117,-96.002999,,,,
4120,Union ,73RD ST S & 112TH E AVE,S GARNETT RD & E 75TH PL S,36.053196,-95.851137,,,,
4123,73rd 112,73RD ST S & 112TH E AVE,E 73RD ST & S 109 EAST AVE,36.058797,-95.853164,,,,
4129,46th Min,S MINGO RD&E 46TH ST S,,36.094637,-95.868984,,,,
4131,101/Elm,101ST S & ELM,S ELM PL & W NEW ORLEANS ST,36.016565,-95.797626,,,,
4132,Ken/Aspe,N ASPEN AVE&W KENOSHA,N ASPEN AVE & W KENOSHA ST,36.060877,-95.814779,,,,
4133,Ken/Main,KENOSHA & MAIN,N MAIN ST & E KENOSHA ST,36.06089,-95.79037,,,,
4134,TreeTop,TREETOP APARTMENTS,S HICKORY AVE & E JEFFERSON ST,36.000792,-95.800706,,,,
4135,SC/TCC,TULSA COMMUNITY COLLEGE SOUTH CAMPUS,,36.045594,-95.863307,,,,
4156,11Uti,E 11TH ST S&S UTICA AVE,S UTICA AVE & E 11TH ST S,36.148139,-95.967461,,,,
4238,121/Elm,121ST ST S& ELM,,35.991728,-95.800436,,,,
4244,Osage,OSAGE CASINO,36 TH STREET NORTH,36.207983,-96.00228,,,,
4245,Wal mart,SAND SPRINGS WAL-MART,,36.133974,-96.120167,,,,
4254,GilEstat,GILCREASE ESTATES,N 24TH W AVE & N YUKON CIRCLE,36.16956,-96.01803,,,,
4263,STFR SOU,SAINT FRANCIS SOUTH HOSPITAL,ST FRANCIS SOUTH & E 91ST ST S,36.033371,-95.855844,,,,
4264,T Hil,TULSA HILLS SHOPPING CENTER,S OLYMPIA AVE & E 71ST ST S,36.05833,-96.002448,,,,
4265,gar61,S GARNETT RD & E 61ST ST S,S GARNETT RD & E 60TH ST S,36.076666,-95.851154,,,,
4267,T Hill,TULSA HILLS SHOPPING CENTER,S OLYMPIA AVE & E 71ST ST S,36.058517,-96.002606,,,,
4268,1Cin,1ST AND CINCINNATI,S CINCINNATI AVE & E 1ST ST S,36.156247,-95.990034,,,,
4269,2Cin,2ND AND CINCINNATI,S CINCINNATI AVE & E 2ND ST S,36.154998,-95.989468,,,,
4271,1/Cin,1ST & S CINCINNATI,S CINCINNATI AVE & E 1ST ST S,36.156287,-95.989435,,,,
4272,2/Cin,2ND & S CINCINNATI,S CINCINNATI AVE & E 2ND ST S,36.154962,-95.989468,,,,
5000,21stDar,E 21ST ST S&S DARLINGTON AVE,5275 E 21ST ST S & S DARLINGTON AVE,36.133423,-95.917512,,,,
5001,31st85av,E 31ST ST S&S 85TH E AVE,8460 E 31ST ST S & S 85TH E AVE,36.118851,-95.882033,,,,
5002,31st89av,E 31ST ST S&S 89TH E AVE,8930 E 31ST ST S & S 89TH E AVE,36.118876,-95.875804,,,,
5003,31st88av,E 31ST ST S&S 88TH E AVE,8777 E 31ST ST S & S 88TH E AVE,36.119015,-95.878479,,,,
5004,137a24st,S 137TH E AVE & E 24TH ST S,2391 S 137TH E AVE & E 24TH ST S,36.129126,-95.823549,,,,
5005,11st65av,W 11TH ST S&S 65TH W AVE,6128 W 11TH ST S & S 65TH W AVE,36.14439,-96.061933,,,,
5006,CPB33av,CHARLES PAGE BLVD&S 33RD W AVE,2762 CHARLES PAGE BLVD & S 33RD W AVE,36.151509,-96.023376,,,,
5007,CPB58av,CHARLES PAGE BLVD&S 58TH W AVE,5710 CHARLES PAGE BLVD & S 58TH W AVE,36.148057,-96.056206,,,,
5008,eCPBAdam,E CHARLES PAGE BLVD&S ADAMS RD,9132 E CHARLES PAGE BLVD & S ADAMS RD,36.137675,-96.097877,,,,
5009,CPBGiRd,GILCREASE DRIVE & CHARLES PAGE BLVD,2527 CHARLES PAGE BLVD & GILCREASE MUSEUM RD/S 25TH W AVE,36.151949,-96.020669,,,,
5010,CPB28av,CHARLES PAGE BLVD&S 28TH W AVE,2751 CHARLES PAGE BLVD & S 28TH W AVE,36.151676,-96.023285,,,,
5011,CPB31av,5028 E 11TH ST S&S 93RD E AVE,2974 CHARLES PAGE BLVD & S 31ST W AVE,36.151155,-96.02584,,,,
5012,CPB31av,CHARLES PAGE BLVD&S 31ST W AVE,3110 CHARLES PAGE BLVD & S 31ST W AVE,36.151193,-96.026369,,,,
5013,CPB33av,CHARLES PAGE BLVD & 33RD W AVE,3184 CHARLES PAGE BLVD & CHARLES PAGE BLVD/S 33RD W AVE,36.150789,-96.028232,,,,
5014,CPB31av,CHARLES PAGE BLVD&S 31ST W AVE,3187 CHARLES PAGE BLVD & S 31ST W AVE,36.150817,-96.028979,,,,
5015,CPB49av,CHARLES PAGE BLVD&S 49TH W AVE,4924 CHARLES PAGE BLVD & S 49TH W AVE,36.148089,-96.04754,,,,
5016,CPB51av,CHARLES PAGE BLVD&S 51ST W AVE,5084 CHARLES PAGE BLVD & S 51ST W AVE,36.147971,-96.049371,,,,
5017,CPB51av,CHARLES PAGE BLVD&S 51ST W AVE,5106 CHARLES PAGE BLVD & S 51ST W AVE,36.148104,-96.049789,,,,
5018,CPB53av,CHARLES PAGE BLVD&S 53RD W AVE,5230 CHARLES PAGE BLVD & S 53RD W AVE,36.148126,-96.052001,,,,
5019,CPB54av,CHARLES PAGE BLVD&S 54TH W AVE,5350 CHARLES PAGE BLVD & S 54TH W AVE,36.148005,-96.052938,,,,
5020,CPB54av,CHARLES PAGE BLVD&S 54TH W AVE,5408 CHARLES PAGE BLVD & S 54TH W AVE,36.148139,-96.053603,,,,
5021,CPB59av,CHARLES PAGE BLVD&S 59TH W AVE,5880 CHARLES PAGE BLVD & S 59TH W AVE,36.148098,-96.058389,,,,
5022,CPB59av,CHARLES PAGE BLVD&S 59TH W AVE,5904 CHARLES PAGE BLVD & S 59TH W AVE,36.14823,-96.058744,,,,
5023,CPBAdam,CHARLES PAGE BLVD&S ADAMS RD,8422 CHARLES PAGE BLVD & S ADAMS RD,36.140177,-96.089447,,,,
5025,11stDel,E 11TH ST S&S DELAWARE AVE,2806 E 11TH ST S & S DELAWARE AVE,36.147758,-95.949038,,,,
5026,15stDel,E 15TH ST S&S DELAWARE AVE,2784 E 15TH ST S & S DELAWARE AVE,36.140633,-95.949519,,,,
5027,11st87av,E 11TH ST S&S 87TH E AVE,8579 E 11TH ST S & S 87TH E AVE,36.148129,-95.880419,,,,
5028,11st93av,E 11TH ST S&S 93RD E AVE,,36.147849,-95.872991,,,,
5029,11st11st,E 11TH ST S&E 11TH ST,450 E 11TH ST S & E 11TH ST,36.147806,-95.981998,,,,
5030,11stSkDr,E 11TH ST S&E SKELLY DR,11734 E 11TH ST S & E SKELLY DR,36.147884,-95.846026,,,,
5031,11st119a,E 11TH ST S&S 119TH E AVE,11762 E 11TH ST S & S 119TH E AVE,36.148121,-95.845456,,,,
5032,11stPeo,E 11TH ST S&S PEORIA AVE,,36.147984,-95.975924,,,,
5033,11st98AN,E 11TH ST S&S 101ST E AVE,9975 E 11TH ST S & S 101ST E AVE,36.148148,-95.864916,,,,
5034,11st101a,E 11TH ST S&S 101ST E AVE,10354 E 11TH ST S & S 101ST E AVE,36.14785,-95.862029,,,,
5035,11st107a,E 11TH ST S&S 107TH E AVE,10722 E 11TH ST S & S 107TH E AVE,36.147862,-95.857477,,,,
5036,11stGntt,E 11TH ST S&S GARNETT RD,11032 E 11TH ST S & S GARNETT RD,36.148149,-95.853167,,,,
5037,11st111a,E 11TH ST S&S 111TH E AVE,11100 E 11TH ST S & S 111TH E AVE,36.147873,-95.8527,,,,
5038,11st119a,E 11TH ST S&S 119TH E AVE,11906 E 11TH ST S & S 119TH E AVE,36.147953,-95.844157,,,,
5039,11st120a,E 11TH ST S&S 120TH E AVE,11918 E 11TH ST S & S 120TH E AVE,36.148121,-95.843572,,,,
5040,11st120a,E 11TH ST S&S 120TH E AVE,11948 E 11TH ST S & S 120TH E AVE,36.147939,-95.842937,,,,
5041,11st124a,E 11TH ST S&S 124TH E AVE,,36.147952,-95.837027,,,,
5042,11st127a,E 11TH ST S&S 127TH E AVE,,36.14811,-95.835757,,,,
5043,11st67av,E 11TH ST S&S 67TH E AVE,6588 E 11TH ST S & S 67TH E AVE,36.148052,-95.902568,,,,
5044,11st71av,E 11TH ST S&S 71ST E AVE,6904 E 11TH ST S & S 71ST E AVE,36.148061,-95.900003,,,,
5045,11st69av,E 11TH ST S&S 69TH E AVE,6916 E 11TH ST S & S 69TH E AVE,36.147873,-95.899748,,,,
5046,11st71av,E 11TH ST S&S 71ST E AVE,6988 E 11TH ST S & S 71ST E AVE,36.148048,-95.898149,,,,
5047,11st71av,E 11TH ST S&S 71ST E AVE,7118 E 11TH ST S & S 71ST E AVE,36.147867,-95.897033,,,,
5048,11st73av,E 11TH ST S&S 73RD E AVE,7172 E 11TH ST S & S 73RD E AVE,36.148071,-95.896095,,,,
5049,11st73av,E 11TH ST S&S 73RD E AVE,7352 E 11TH ST S & S 73RD E AVE,36.147868,-95.89504,,,,
5050,11st75av,E 11TH ST S&S 75TH E AVE,7522 E 11TH ST S & S 75TH E AVE,36.147906,-95.89313,,,,
5051,11st76av,E 11TH ST S&S 76TH E AVE,7569 E 11TH ST S & S 76TH E AVE,36.148205,-95.892641,,,,
5052,11st77av,E 11TH ST S&S 77TH E AVE,7730 E 11TH ST S & S 77TH E AVE,36.147913,-95.890822,,,,
5053,11st79av,E 11TH ST S&S 79TH E AVE,7877 E 11TH ST S & S 79TH E AVE,36.14819,-95.889169,,,,
5054,11st85av,E 11TH ST S&S 85TH E AVE,8311 E 11TH ST S & S 85TH E AVE,36.148115,-95.884279,,,,
5055,11st83av,E 11TH ST S&S 83RD E AVE,8310 E 11TH ST S & S 83RD E AVE,36.147826,-95.884219,,,,
5056,11st85av,E 11TH ST S&S 85TH E AVE,8390 E 11TH ST S & S 85TH E AVE,36.148116,-95.882447,,,,
5057,11st85av,E 11TH ST S&S 85TH E AVE,8512 E 11TH ST S & S 85TH E AVE,36.147827,-95.881978,,,,
5058,11st87av,E 11TH ST S&S 87TH E AVE,8702 E 11TH ST S & S 87TH E AVE,36.147835,-95.879926,,,,
5059,11st89av,E 11TH ST S&S 89TH E AVE,8789 E 11TH ST S & S 89TH E AVE,36.14813,-95.878029,,,,
5060,11st89av,E 11TH ST S&S 89TH E AVE,8911 E 11TH ST S & S 89TH E AVE,36.147848,-95.877412,,,,
5061,11st91av,E 11TH ST S&S 91ST E AVE,8987 E 11TH ST S & S 91ST E AVE,36.148141,-95.875265,,,,
5062,11st89av,E 11TH ST S&S 89TH E AVE,8994 E 11TH ST S & S 89TH E AVE,36.14785,-95.875039,,,,
5063,11stMngo,E 11TH ST S&S MINGO RD,9511 E 11TH ST S & S MINGO RD,36.148143,-95.870581,,,,
5064,11st93av,E 11TH ST S&S 93RD E AVE,9171 E 11TH ST S & S 93RD E AVE,36.148134,-95.873701,,,,
5065,11stBrdn,E 11TH ST S&S BRADEN AVE,5017 E 11TH ST S & S BRADEN AVE,36.147888,-95.921249,,,,
5066,11stAtl,E 11TH ST S&S ATLANTA AVE,2484 E 11TH ST S & S ATLANTA AVE,36.147889,-95.956211,,,,
5067,11stBmAv,E 11TH ST S&S BIRMINGHAM AVE,2606 E 11TH ST S & S BIRMINGHAM AVE,36.147756,-95.953466,,,,
5068,11stBmPl,E 11TH ST S&S BIRMINGHAM PL,2611 E 11TH ST S & S BIRMINGHAM PL,36.147879,-95.953158,,,,
5069,11stBrdn,E 11TH ST S&S BRADEN AVE,5146 E 11TH ST S & S BRADEN AVE,36.147771,-95.919707,,,,
5070,11stCant,E 11TH ST S&S CANTON AVE,5169 E 11TH ST S & S CANTON AVE,36.147894,-95.919389,,,,
5072,11stColu,E 11TH ST S&S COLUMBIA AVE,2669 E 11TH ST S & S COLUMBIA AVE,36.147883,-95.951969,,,,
5073,11stColu,E 11TH ST S&S COLUMBIA AVE,2710 E 11TH ST S & S COLUMBIA AVE,36.147757,-95.951268,,,,
5074,11stCant,E 11TH ST S&S CANTON AVE,5288 E 11TH ST S & S CANTON AVE/S DARLINGTON AVE,36.147817,-95.917933,,,,
5075,11stDel,E 11TH ST S&S DELAWARE AVE,2789 E 11TH ST S & S DELAWARE AVE,36.147886,-95.949501,,,,
5076,10stElg,E 10TH ST S&S ELGIN AVE,307 E 10TH ST S & S ELGIN AVE,36.148059,-95.983895,,,,
5077,10stDet,E 10TH ST S&S DETROIT AVE,318 E 10TH ST S & S DETROIT AVE,36.148,-95.983452,,,,
5078,11stErie,E 11TH ST S&S ERIE AVE,5375 E 11TH ST S & S ERIE AVE,36.147917,-95.91707,,,,
5079,11stEvan,E 11TH ST S&S EVANSTON AVE,2984 E 11TH ST S & S EVANSTON AVE,36.147741,-95.947201,,,,
5080,11stFlor,E 11TH ST S&S FLORANCE AVE,3069 E 11TH ST S & S FLORANCE AVE,36.147895,-95.945274,,,,
5081,11stFlor,E 11TH ST S&S FLORENCE AVE,3108 E 11TH ST S & S FLORENCE AVE,36.147765,-95.944492,,,,
5082,11stNorf,E 11TH ST S&S NORFOLK AVE,507 E 11TH ST S & S NORFOLK AVE/S FRANKFORT AVE,36.147963,-95.981422,,,,
5083,11stFul,E 11TH ST S&S FULTON AVE,5504 E 11TH ST S & S FULTON AVE,36.1478,-95.915608,,,,
5084,11stGntt,E 11TH ST S&S GARNETT RD,11229 E 11TH ST S & S GARNETT RD,36.148152,-95.851753,,,,
5085,11stGntt,E 11TH ST S&S GARNETT RD,11332 E 11TH ST S & S GARNETT RD,36.147893,-95.85025,,,,
5086,11stGary,E 11TH ST S&S GARY AVE,3179 E 11TH ST S & S GARY AVE,36.147896,-95.942854,,,,
5087,11stGary,E 11TH ST S&S GARY AVE,3204 E 11TH ST S & S GARY AVE,36.147757,-95.942376,,,,
5088,11stHarv,E 11TH ST S&S HARVARD AVE,3265 E 11TH ST S & S HARVARD AVE,36.147917,-95.940854,,,,
5089,11stIndy,E 11TH ST S&S INDIANNAPOLIS AVE,3344 E 11TH ST S & S INDIANNAPOLIS AVE,36.147749,-95.939761,,,,
5090,11stHud,E 11TH ST S&S HUDSON AVE,5583 E 11TH ST S & S HUDSON AVE,36.147948,-95.913861,,,,
5091,11stHud,E 11TH ST S&S HUDSON AVE,5708 E 11TH ST S & S HUDSON AVE,36.14782,-95.913268,,,,
5092,11stJamt,E 11TH ST S&S JAMESTOWN AVE,3475 E 11TH ST S & S JAMESTOWN AVE,36.147898,-95.938394,,,,
5093,11stJop,E 11TH ST S&S JOPLIN AVE,5789 E 11TH ST S & S JOPLIN AVE,36.147967,-95.911537,,,,
5094,11stJop,E 11TH ST S&S JOPLIN AVE,5910 E 11TH ST S & S JOPLIN AVE,36.147837,-95.91106,,,,
5095,11stLew,11TH & LEWIS,2259 E 11TH ST S & S LEWIS AVE,36.147897,-95.958983,,,,
5096,11stLew,11TH & LEWIS,2404 E 11TH ST S & S LEWIS AVE,36.147755,-95.957893,,,,
5097,11stLou,E 11TH ST S&S LOUISVILLE AVE,3679 E 11TH ST S & S LOUISVILLE AVE,36.147883,-95.936171,,,,
5098,11stLou,E 11TH ST S&S LOUISVILLE AVE,3726 E 11TH ST S & S LOUISVILLE AVE,36.147757,-95.935283,,,,
5099,11stMpwd,E 11TH ST S&S MAPLEWOOD AVE,6159 E 11TH ST S & S MAPLEWOOD AVE,36.147987,-95.908403,,,,
5100,11stMpwd,E 11TH ST S&S MAPLEWOOD AVE,6236 E 11TH ST S & S MAPLEWOOD AVE,36.147867,-95.907506,,,,
5101,11stMem,11TH ST S & MEMORIAL,1085 E 11TH ST S & S MEMORIAL DR,36.148125,-95.887187,,,,
5102,11stMem,11TH & MEMORIAL,E 11TH ST S & S MEMORIAL DR,36.147833,-95.886339,,,,
5103,11st101a,E 11TH ST S&S 101ST E AVE,9799 E 11TH ST S & S 101ST E AVE,36.14815,-95.867425,,,,
5104,11stMngo,E 11TH ST S&S MINGO RD,9724 E 11TH ST S & S MINGO RD,36.147856,-95.868365,,,,
5105,11stNHvn,E 11TH ST S&S NEW HAVEN AVE,3781 E 11TH ST S & S NEW HAVEN AVE,36.14789,-95.933985,,,,
5106,11stNorf,E 11TH ST S&S NORFOLK AVE,,36.147987,-95.979412,,,,
5107,11stNorf,E 11TH ST S&S NORFOLK AVE,1110 E 11TH ST S & S NORFOLK AVE,36.147808,-95.978851,,,,
5108,11stNwdA,E 11TH ST S&S NORWOOD AVE,6332 E 11TH ST S & S NORWOOD AVE,36.147866,-95.906432,,,,
5109,11stPeo,11TH & PEORIA,1308 E 11TH ST S & S PEORIA AVE,36.147825,-95.975297,,,,
5110,11stPit,E 11TH ST S&S PITTSBURG AVE,4118 E 11TH ST S & S PITTSBURG AVE,36.147755,-95.9312,,,,
5111,11stQuak,E 11TH ST S&S QUAKER AVE,1317 E 11TH ST S & S QUAKER AVE,36.147962,-95.97481,,,,
5112,11stQuak,E 11TH ST S&S QUAKER AVE,1348 E 11TH ST S & S QUAKER AVE,36.147822,-95.97415,,,,
5113,11stRich,E 11TH ST S&S RICHMOND AVE,4338 E 11TH ST S & S RICHMOND AVE,36.147748,-95.928778,,,,
5114,11stSand,E 11TH ST S&S SANDUSKY AVE,4317 E 11TH ST S & S SANDUSKY AVE,36.147877,-95.928936,,,,
5115,11stRock,E 11TH ST S&S ROCKFORD AVE,1469 E 11TH ST S & S ROCKFORD AVE,36.147962,-95.972499,,,,
5116,11stSher,E 11TH ST S&S SHERIDAN RD,6449 E 11TH ST S & S SHERIDAN RD,36.148039,-95.9051,,,,
5117,11stSher,E 11TH ST S&S SHERIDAN RD,6524 E 11TH ST S & S SHERIDAN RD,36.147852,-95.903956,,,,
5118,11stTren,E 11TH ST S&S TRENTON AVE,1531 E 11TH ST S & S TRENTON AVE,36.147948,-95.970908,,,,
5119,11stStLu,E 11TH ST S&S ST LOUIS AVE,1540 E 11TH ST S & S ST LOUIS AVE,36.147803,-95.970752,,,,
5120,11stTol,E 11TH ST S&S TOLEDO AVE,4473 E 11TH ST S & S TOLEDO AVE,36.147887,-95.927221,,,,
5121,11stTol,E 11TH ST S&S TOLEDO AVE,4516 E 11TH ST S & S TOLEDO AVE,36.147748,-95.926708,,,,
5122,11stTren,E 11TH ST S&S TRENTON AVE,1606 E 11TH ST S & S TRENTON AVE,36.14781,-95.969513,,,,
5123,11stUtic,S UTICA AVE&E 11TH ST,1669 E 11TH ST S & S UTICA AVE,36.147952,-95.967788,,,,
5124,11stUtic,E 11TH ST S&S UTICA AVE,1706 E 11TH ST S & S UTICA AVE,36.147773,-95.966769,,,,
5125,11stVand,E 11TH ST S&S VANDALIA AVE,4730 E 11TH ST S & S VANDALIA AVE,36.14776,-95.924427,,,,
5126,11stVict,E 11TH ST S&S VICTOR AVE,1721 E 11TH ST S & S VICTOR AVE,36.147931,-95.965968,,,,
5127,11stVict,E 11TH ST S&S VICTOR AVE,1804 E 11TH ST S & S VICTOR AVE,36.147767,-95.965049,,,,
5128,11stWins,E 11TH ST S&S WINSTON AVE,4729 E 11TH ST S & S WINSTON AVE,36.14788,-95.924433,,,,
5129,11stYork,E 11TH ST S&S YORKTOWN AVE,2058 E 11TH ST S & S YORKTOWN AVE,36.147818,-95.962162,,,,
5130,11stXanP,E 11TH ST S&S XANTHUS PL,2021 E 11TH ST S & S XANTHUS PL,36.14791,-95.962925,,,,
5131,11stYa,E 11TH ST S&S YALE AVE,4855 E 11TH ST S & S YALE AVE,36.147908,-95.923008,,,,
5132,11stYa,E 11TH ST S&S YALE AVE,4928 E 11TH ST S & S YALE AVE,36.147736,-95.922099,,,,
5133,11stYork,E 11TH ST S&S YORKTOWN AVE,2124 E 11TH ST S & S YORKTOWN AVE,36.147759,-95.961301,,,,
5134,Jasp152a,W JASPER ST&S 152ND E AV,15187 W JASPER ST/E 131ST ST & S 152ND E AVE,35.973884,-95.807464,,,,
5135,15stFloP,E 15TH ST S&S FLORENCE PL,3109 E 15TH ST S & S FLORENCE PL,36.140617,-95.944308,,,,
5136,15stAlgh,E 15TH ST S&S ALLEGHENY AVE,4981 E 15TH ST S & S ALLEGHENY AVE,36.140654,-95.921608,,,,
5137,15stAtl,E 15TH ST S&S ATLANTA AVE,2483 E 15TH ST S & S ATLANTA AVE,36.140622,-95.956252,,,,
5138,15stAtl,E 15TH ST S&S ATLANTA AVE,2512 E 15TH ST S & S ATLANTA AVE,36.140475,-95.955766,,,,
5139,15stBalt,E 15TH ST S&S BALTIMORE AVE,64 E 15TH ST S & S BALTIMORE AVE,36.14057,-95.985953,,,,
5141,15stCin,E 15TH ST S&S CINCINNATI AVE,230 E 15TH ST S & S CINCINNATI AVE,36.140551,-95.983616,,,,
5142,15stBrdn,E 15TH ST S&S BRADEN AVE,5073 E 15TH ST S & S BRADEN AVE,36.14065,-95.920537,,,,
5143,15stBrdn,E 15TH ST S&S BRADEN AVE,5110 E 15TH ST S & S BRADEN AVE,36.140495,-95.920087,,,,
5144,15stCin,E 15TH ST S&S CINCINNATI AVE,165 E 15TH ST S & S CINCINNATI AVE,36.140704,-95.984369,,,,
5145,15stColl,E 15TH ST S&S COLLEGE AVE,2975 E 15TH ST S & S COLLEGE AVE,36.140642,-95.946177,,,,
5146,15stCuP,E 15TH ST S&S COLUMBIA PL,2701 E 15TH ST S & S COLUMBIA PL,36.140625,-95.951427,,,,
5147,15stColu,E 15TH ST S&S COLUMBIA AVE,2704 E 15TH ST S & S COLUMBIA AVE,36.140463,-95.9513,,,,
5148,15stDar,E 15TH ST S&S DARLINGTON AVE,5275 E 15TH ST S & S DARLINGTON AVE,36.140663,-95.918304,,,,
5149,15stDar,E 15TH ST S&S DARLINGTON AVE,,36.14054,-95.917889,,,,
5150,15stDel,E 15TH ST S&S DELAWARE AVE,2804 E 15TH ST S & S DELAWARE AVE,36.140499,-95.949025,,,,
5151,15stEvan,E 15TH ST S&S EVANSTON AVE,2867 E 15TH ST S & S EVANSTON AVE,36.140633,-95.947514,,,,
5152,15stEvan,E 15TH ST S&S EVANSTON AVE,2920 E 15TH ST S & S EVANSTON AVE,36.140508,-95.946865,,,,
5153,15stFlor,E 15TH ST S&S FLORENCE AVE,3104 E 15TH ST S & S FLORENCE AVE,36.140494,-95.944622,,,,
5154,15stErie,E 15TH ST S&S ERIE AVE,,36.140542,-95.915943,,,,
5155,15stGary,E 15TH ST S&S GARY AVE,3177 E 15TH ST S & S GARY AVE,36.140628,-95.942863,,,,
5156,15stGary,E 15TH ST S&S GARY AVE,3208 E 15TH ST S & S GARY AVE,36.140503,-95.942248,,,,
5157,15stHarv,E 15TH ST S&S HARVARD AVE,3255 E 15TH ST S & S HARVARD AVE,36.140631,-95.940939,,,,
5158,15stHarv,E 15TH ST S&S HARVARD AVE,3360 E 15TH ST S & S HARVARD AVE,36.140485,-95.939677,,,,
5159,15stJamt,E 15TH ST S&S JAMESTOWN AVE,,36.140684,-95.938388,,,,
5160,15stLew,E 15TH ST S&S LEWIS AVE,2349 E 15TH ST S & S LEWIS AVE,36.14061,-95.958818,,,,
5161,15stLew,E 15TH ST S&S LEWIS AVE,2410 E 15TH ST S & S LEWIS AVE,36.140479,-95.957797,,,,
5162,15stLou,E 15TH ST S&S LOUISVILLE AVE,3669 E 15TH ST S & S LOUISVILLE AVE,36.140697,-95.936191,,,,
5163,15stLou,E 15TH ST S&S LOUISVILLE AVE,3734 E 15TH ST S & S LOUISVILLE AVE,36.140472,-95.935471,,,,
5164,15stMad,E 15TH ST S&S MADISON AVE,1024 E 15TH ST S & S MADISON AVE,36.140565,-95.980032,,,,
5165,15stNHvn,E 15TH ST S&S NEW HAVEN AVE,3857 E 15TH ST S & S NEW HAVEN AVE,36.140695,-95.934136,,,,
5166,15stNHvn,E 15TH ST S&S NEW HAVEN AVE,3922 E 15TH ST S & S NEW HAVEN AVE,36.140469,-95.933336,,,,
5167,15stNewP,E 15TH ST S&S NEWPORT AVE,1142 E 15TH ST S & S NEWPORT AVE,36.140578,-95.977741,,,,
5168,15stNorf,E 15TH ST S&S NORFOLK AVE,1079 E 15TH ST S & S NORFOLK AVE,36.1407,-95.979336,,,,
5169,15stNorf,E 15TH ST S&S NORFOLK AVE,1104 E 15TH ST S & S NORFOLK AVE,36.140575,-95.978893,,,,
5170,15stOswe,E 15TH ST S&S OSWEGO AVE,3977 E 15TH ST S & S OSWEGO AVE,36.140698,-95.932824,,,,
5171,15stOswe,E 15TH ST S&S OWASSO AVE,1238 E 15TH ST S & S OWASSO AVE,36.140576,-95.976355,,,,
5172,15stPeo,E 15TH ST S&S PEORIA AVE,1265 E 15TH ST S & S PEORIA AVE,36.140699,-95.976043,,,,
5173,15stPeo,E 15TH ST S&S PEORIA AVE,1308 E 15TH ST S & S PEORIA AVE,36.140566,-95.975321,,,,
5174,15stPit,E 15TH ST S&S PITTSBURG AVE,4075 E 15TH ST S & S PITTSBURG AVE,36.140681,-95.931704,,,,
5175,15stQuak,E 15TH ST S&S QUAKER AVE,1321 E 15TH ST S & S QUAKER AVE,36.140714,-95.974892,,,,
5176,15stQueb,E 15TH ST S&S QUEBEC AVE,4181 E 15TH ST S & S QUEBEC AVE,36.140678,-95.930556,,,,
5177,15stPit,E 15TH ST S&S PITTSBURG AVE,4182 E 15TH ST S & S PITTSBURG AVE,36.140458,-95.930561,,,,
5178,15stQuin,E 15TH ST S&S QUINCY AVE,1430 E 15TH ST S & S QUINCY AVE,36.140557,-95.972922,,,,
5179,15stRich,E 15TH ST S&S RICHMOND AVE,,36.140447,-95.928957,,,,
5180,15stSand,E 15TH ST S&S SANDUSKY AVE,,36.140682,-95.928341,,,,
5182,15stJop,E 15TH ST S&S JOPLIN AVE,6288 E 15TH ST S & S JOPLIN AVE,36.140593,-95.906059,,,,
5183,15stGltt,E 15TH ST S&S GILLETTE AVE,2233 E 15TH ST S & S GILLETTE AVE,36.140614,-95.959901,,,,
5184,15stUrba,E 15TH ST S&S URBANA AVE,,36.140678,-95.926247,,,,
5185,15stUrba,E 15TH ST S&S URBANA AVE,4614 E 15TH ST S & S URBANA AVE,36.14045,-95.925537,,,,
5186,15stUtic,E 15TH ST S&S UTICA AVE,1663 E 15TH ST S & S UTICA AVE,36.140659,-95.967663,,,,
5187,15stUtic,E 15TH ST S&S UTICA AVE,1732 E 15TH ST S & S UTICA AVE,36.140527,-95.96676,,,,
5188,15stVict,E 15TH ST S&S VICTOR AVE,1749 E 15TH ST S & S VICTOR AVE,36.140667,-95.966519,,,,
5189,15stXanP,E 15TH ST S&S XANTHUS PL,1891 E 15TH ST S & S XANTHUS PL,36.140637,-95.962902,,,,
5190,15stYa,E 15TH ST S&S YALE AVE,4855 E 15TH ST S & S YALE AVE,36.140689,-95.923007,,,,
5191,15stYa,E 15TH ST S&S YALE AVE,4930 E 15TH ST S & S YALE AVE,36.140466,-95.922161,,,,
5192,15stYork,E 15TH ST S&S YORKTOWN AVE,2104 E 15TH ST S & S YORKTOWN AVE,36.140485,-95.961798,,,,
5193,15stColu,E 15TH ST S&S COLUMBIA AVE,2603 E 15TH ST S & S COLUMBIA AVE,36.140654,-95.953327,,,,
5194,15stFul,E 15TH ST S&S FULTON AVE,,36.140695,-95.916001,,,,
5195,21st107a,E 21ST ST S&S 107TH E AVE,10311 E 21ST ST S & S 107TH E AVE,36.133578,-95.86223,,,,
5196,21st109a,E 21ST ST S&S 109TH E AVE,10739 E 21ST ST S & S 109TH E AVE,36.133584,-95.855695,,,,
5197,21st116a,E 21ST ST S&S 116TH E AVE,11577 E 21ST ST S & S 116TH E AVE,36.133589,-95.847725,,,,
5198,21st123a,E 21ST ST S&S 123RD E AVE,12125 E 21ST ST S & S 123RD E AVE,36.133559,-95.841063,,,,
5199,21st123a,E 21ST ST S&S 123RD E AVE,12185 E 21ST ST S & S 123RD E AVE,36.133573,-95.839632,,,,
5200,21st125a,E 21ST ST S&S 125TH E AVE,12379 E 21ST ST S & S 125TH E AVE,36.133566,-95.837546,,,,
5201,21st129a,E 21ST ST S&S 129TH E AVE,12591 E 21ST ST S & S 129TH E AVE,36.133561,-95.8337,,,,
5202,21st71av,E 21ST ST S&S 71ST E AVE,6990 E 21ST ST S & S 71ST E AVE,36.133515,-95.897552,,,,
5203,21st73av,E 21ST ST S&S 73RD E AVE,7278 E 21ST ST S & S 73RD E AVE,36.133525,-95.895746,,,,
5204,21st77av,E 21ST ST S&S 77TH E AVE,,36.133498,-95.892518,,,,
5205,21st79av,E 21ST ST S&S 79TH E AVE,7795 E 21ST ST S & S 79TH E AVE,36.133562,-95.889174,,,,
5206,21st89av,E 21ST ST S&S 89TH E AVE,8867 E 21ST ST S & S 89TH E AVE,36.133574,-95.878156,,,,
5207,21st93av,E 21ST ST S&S 93RD E AVE,8993 E 21ST ST S & S 93RD E AVE,36.13358,-95.874673,,,,
5208,21st99av,E 21ST ST S&S 99TH E AVE,9893 E 21ST ST S & S 99TH E AVE,36.133568,-95.866332,,,,
5209,21stAtl,E 21ST ST S&S ATLANTA AVE,2489 E 21ST ST S & S ATLANTA AVE,36.133341,-95.95623,,,,
5210,21stCin,E 21ST ST S&S CINCINNATI AVE,189 E 21ST ST S & S CINCINNATI AVE,36.133411,-95.983718,,,,
5211,21stEvan,E 21ST ST S&S EVANSTON AVE,,36.133324,-95.947277,,,,
5212,21stFul,E 21ST ST S&S FULTON AVE,,36.133448,-95.914517,,,,
5213,21stGntt,E 21ST ST S&S GARNETT RD,11175 E 21ST ST S & S GARNETT RD,36.133584,-95.851552,,,,
5214,21stGary,E 21ST ST S&S GARY AVE,3183 E 21ST ST S & S GARY AVE,36.133344,-95.942831,,,,
5215,21stHarv,E 21ST ST S&S HARVARD AVE,3257 E 21ST ST S & S HARVARD AVE,36.133369,-95.940908,,,,
5216,21stHud,E 21ST ST S&S HUDSON AVE,5657 E 21ST ST S & S HUDSON AVE,36.13345,-95.913246,,,,
5217,21stIndy,E 21ST ST S&S INDIANAPOLIS AVE,,36.133342,-95.939581,,,,
5218,21stKnox,E 21ST ST S&S KNOXVILLE AVE,3575 E 21ST ST S & S KNOXVILLE AVE,36.133362,-95.93725,,,,
5219,21stLake,E 21ST ST S&S LAKEWOOD AVE,,36.133464,-95.909346,,,,
5220,21stLew,E 21ST ST S&S LEWIS AVE,2279 E 21ST ST S & S LEWIS AVE,36.13334,-95.958611,,,,
5221,21stMpwd,E 21ST ST S&S MAPLEWOOD AVE,6193 E 21ST ST S & S MAPLEWOOD AVE,36.133484,-95.907178,,,,
5222,21stOswe,E 21ST ST S&S OSWEGO AVE,,36.133353,-95.934832,,,,
5223,21st85av,E 21ST ST S&S 85TH E AVE,8219 E 21ST ST S & S 85TH E AVE,36.133579,-95.885359,,,,
5224,21stNorf,E 21ST ST S&S NORFOLK AVE,1076 E 21ST ST S & S NORFOLK AVE,36.133401,-95.9793,,,,
5225,21stPeo,E 21ST ST S&S PEORIA AVE,1279 E 21ST ST S & S PEORIA AVE,36.133436,-95.975978,,,,
5226,21stPit,E 21ST ST S&S PITTSBURG AVE,,36.13337,-95.931842,,,,
5227,21stWh,E 21ST ST S&S WHEELING AVE,1934 E 21ST ST S & S WHEELING AVE,36.133383,-95.965105,,,,
5228,21stBrdn,E 21ST ST S&S BRADEN AVE,4953 E 21ST ST S & S BRADEN AVE,36.133426,-95.921362,,,,
5229,21st107a,E 21ST ST S&S 107TH E AVE,10702 E 21ST ST S & S 107TH E AVE,36.133373,-95.856956,,,,
5230,21st109a,E 21ST ST S&S 109TH E  AVE,10924 E 21ST ST S & S 109TH E  AVE,36.133388,-95.854535,,,,
5231,21st111a,E 21ST ST S&S 111TH E AVE,11114 E 21ST ST S & S 111TH E AVE,36.133392,-95.852761,,,,
5232,21st114a,E 21ST ST S&S 114TH E AVE,11536 E 21ST ST S & S 114TH E AVE,36.133386,-95.848063,,,,
5233,21st117a,E 21ST ST S&S 117TH E AVE,11724 E 21ST ST S & S 117TH E AVE,36.133389,-95.845864,,,,
5234,21st120a,E 21ST ST S&S 120TH E AVE,11975 E 21ST ST S & S 120TH E AVE,36.133571,-95.843688,,,,
5235,21st120a,E 21ST ST S&S 120TH E AVE,12008 E 21ST ST S & S 120TH E AVE,36.133379,-95.843276,,,,
5236,21st121a,E 21ST ST S&S 121ST E AVE,12114 E 21ST ST S & S 121ST E AVE,36.133377,-95.841317,,,,
5237,21st123a,E 21ST ST S&S 123RD E AVE,12310 E 21ST ST S & S 123RD E AVE,36.133363,-95.839077,,,,
5238,21st125a,E 21ST ST S&S 125TH E AVE,12560 E 21ST ST S & S 125TH E AVE,36.133353,-95.834722,,,,
5239,21st129a,E 21ST ST S&S 129TH E AVE,12950 E 21ST ST S & S 129TH E AVE,36.133357,-95.832032,,,,
5240,21st131a,E 21ST ST S&S 131ST E AVE,13112 E 21ST ST S & S 131ST E AVE,36.133364,-95.830308,,,,
5241,21st68av,E 21ST ST S&S 68TH E AVE,6798 E 21ST ST S & S 68TH E AVE,36.133381,-95.90059,,,,
5242,21st69av,E 21ST ST S&S 69TH E AVE,6798 E 21ST ST S & S 69TH E AVE,36.133522,-95.900555,,,,
5243,21st67av,E 21ST ST S&S 67TH E AVE,6978 E 21ST ST S & S 67TH E AVE,36.133384,-95.897857,,,,
5244,21st71av,E 21ST ST S&S 71ST E AVE,7090 E 21ST ST S & S 71ST E AVE,36.133383,-95.896781,,,,
5245,21st76av,E 21ST ST S&S 76TH E AVE,,36.133395,-95.892526,,,,
5246,21st77av,E 21ST ST S&S 77TH E AVE,7710 E 21ST ST S & S 77TH E AVE,36.133402,-95.890938,,,,
5247,21st79av,E 21ST ST S&MEMORIAL,7846 E 21ST ST S & S 79TH E AVE,36.133409,-95.888387,,,,
5248,21st85av,E 21ST ST S&S 85TH E AVE,8475 E 21ST ST S & S 85TH E AVE,36.13357,-95.882492,,,,
5249,21st85av,E 21ST ST S&S 85TH E AVE,8530 E 21ST ST S & S 85TH E AVE,36.133369,-95.881871,,,,
5250,21st87av,E 21ST ST S&S 87TH E AVE,8714 E 21ST ST S & S 87TH E AVE,36.13337,-95.879701,,,,
5251,21st91av,E 21ST ST S&S 91ST E AVE,,36.133373,-95.875243,,,,
5252,21st92av,E 21ST ST S&S 92ND E AVE,9214 E 21ST ST S & S 92ND E AVE,36.133372,-95.873032,,,,
5253,21st99av,E 21ST ST S&S 99TH E AVE,9914 E 21ST ST S & S 99TH E AVE,36.13338,-95.865825,,,,
5254,21stAtl,E 21ST ST S&S ATLANTA AVE,2502 E 21ST ST S & S ATLANTA AVE,36.133177,-95.955927,,,,
5255,21stBmAv,E 21ST ST S&S BIRMINGHAM AVE,2583 E 21ST ST S & S BIRMINGHAM AVE,36.133341,-95.953987,,,,
5256,21stCin,E 21ST ST S&S CINCINNATI AVE,220 E 21ST ST S & S CINCINNATI AVE,36.133297,-95.983121,,,,
5257,21stColu,E 21ST ST S&S COLUMBIA AVE,2691 E 21ST ST S & S COLUMBIA AVE,36.133366,-95.951207,,,,
5258,21stBmAv,E 21ST ST S&S BIRMINGHAM AVE,2686 E 21ST ST S & S BIRMINGHAM AVE,36.133186,-95.951259,,,,
5259,21stDar,E 21ST ST S&S DARLINGTON AVE,,36.133297,-95.917748,,,,
5260,21stColu,E 21ST ST S&S COLUMBIA AVE,,36.133209,-95.947261,,,,
5261,21stFlor,E 21ST ST S&S FLORENCE AVE,3084 E 21ST ST S & S FLORENCE AVE,36.133344,-95.945011,,,,
5262,21stFlor,E 21ST ST S&S FLORENCE AVE,3114 E 21ST ST S & S FLORENCE AVE,36.133226,-95.943944,,,,
5263,21stFul,E 21ST ST S&S FULTON AVE,5535 E 21ST ST S & S FULTON AVE,36.133316,-95.913923,,,,
5264,21stGntt,E 21ST ST S&S GARNETT RD,11350 E 21ST ST S & S GARNETT RD,36.133387,-95.850262,,,,
5265,21stGary,E 21ST ST S&S GARY AVE,3212 E 21ST ST S & S GARY AVE,36.133224,-95.941936,,,,
5266,21stHarv,E 21ST ST S&S HARVARD AVE,,36.13319,-95.939525,,,,
5267,21stIrvg,E 21ST ST S&S IRVINGTON AVE,,36.133335,-95.910844,,,,
5268,21stLew,E 21ST ST S&S LEWIS AVE,2442 E 21ST ST S & S LEWIS AVE,36.133144,-95.957259,,,,
5270,21stMad,E 21ST ST S&S MADISON AVE,1018 E 21ST ST S & S MADISON AVE,36.133292,-95.980238,,,,
5271,21stMa,E 21ST ST S&S MAIN ST,24 E 21ST ST S & S MAIN ST,36.133285,-95.987101,,,,
5272,21stMpwd,E 21ST ST S&S MAPLEWOOD AVE,6206 E 21ST ST S & S MAPLEWOOD AVE,36.133362,-95.906748,,,,
5273,21stMari,E 21ST ST S&S MARION AVE,,36.133231,-95.935113,,,,
5274,21stMem,E 21ST ST S&S MEMORIAL DR,8154 E 21ST ST S & S MEMORIAL DR,36.13337,-95.886089,,,,
5275,21stMem,E 21ST ST S&S MEMORIAL DR,7931 E 21ST ST S & S MEMORIAL DR,36.133562,-95.887413,,,,
5276,21stOswe,E 21ST ST S&S OSWEGO AVE,,36.133239,-95.932339,,,,
5277,21stOw,E 21ST ST S&S OWASSO AVE,1220 E 21ST ST S & S OWASSO AVE/E 21ST PL S,36.133299,-95.976983,,,,
5278,21stPeo,E 21ST ST S&S PEORIA AVE,1330 E 21ST ST S & S PEORIA AVE,36.133301,-95.975097,,,,
5279,21stRock,E 21ST ST S&S ROCKFORD AVE,1502 E 21ST ST S & S ROCKFORD AVE,36.133295,-95.971361,,,,
5280,21stSher,E 21ST ST S&S SHERIDAN RD,6508 E 21ST ST S & S SHERIDAN RD,36.133338,-95.904035,,,,
5281,21stSher,E 21ST ST S&S SHERIDAN RD,6274 E 21ST ST S & S SHERIDAN RD,36.133516,-95.905223,,,,
5282,21st68av,E 21ST ST S&S 68TH E AVE,6518 E 21ST ST S & S 68TH E AVE,36.133525,-95.903516,,,,
5283,21stUtic,E 21ST ST S&S UTICA AVE,1587 E 21ST ST S & S UTICA AVE,36.133378,-95.967679,,,,
5284,21stUtic,E 21ST ST S&S UTICA AVE,1920 E 21ST ST S & S UTICA AVE,36.133229,-95.965993,,,,
5285,21stVand,E 21ST ST S&S VANDALIA AVE,,36.133253,-95.924827,,,,
5286,21stWh,E 21ST ST S&S WHEELING AVE,1994 E 21ST ST S & S WHEELING AVE/S XANTHUS AVE,36.133194,-95.963498,,,,
5287,21stYa,E 21ST ST S&S YALE AVE,4920 E 21ST ST S & S YALE AVE,36.133238,-95.922066,,,,
5288,21stYork,E 21ST ST S&S YORKTOWN AVE,2071 E 21ST ST S & S YORKTOWN AVE,36.133342,-95.962399,,,,
5289,21stYork,E 21ST ST S&S YORKTOWN AVE,2118 E 21ST ST S & S YORKTOWN AVE,36.133174,-95.961707,,,,
5290,21stYa,E 21ST ST S&S YALE AVE,,36.133438,-95.923537,,,,
5291,31st108a,E 31ST ST S&S 108TH E AVE,10824 E 31ST ST S & S 108TH E AVE,36.118863,-95.856113,,,,
5292,31st111a,E 31ST ST S&S 111TH E AVE,11162 E 31ST ST S & S 111TH E AVE,36.118904,-95.852795,,,,
5293,31st129a,E 31ST ST S&S 129TH E AVE,12918 E 31ST ST S & S 129TH E AVE,36.118852,-95.832776,,,,
5294,31st99av,E 31ST ST S&S 99TH E AVE,9743 E 31ST ST S & S 99TH E AVE,36.119024,-95.866657,,,,
5295,31stMngo,E 31ST ST S&S MINGO RD,9477 E 31ST ST S & S MINGO RD,36.11906,-95.869135,,,,
5297,31st101a,E 31ST ST S&S 101ST E AVE,10194 E 31ST ST S & S 101ST E AVE,36.118863,-95.862867,,,,
5298,31st101a,E 31ST ST S&S 101ST E AVE,10135 E 31ST ST S & S 101ST E AVE,36.119055,-95.863876,,,,
5299,31st108a,E 31ST ST S&S 108TH E AVE,10683 E 31ST ST S & S 108TH E AVE,36.119107,-95.856743,,,,
5300,31st111a,E 31ST ST S&S 111TH E AVE,10981 E 31ST ST S & S 111TH E AVE,36.119061,-95.853761,,,,
5301,31st124a,E 31ST ST S&S 124TH E AVE,,36.118852,-95.839198,,,,
5302,31st126a,E 31ST ST S&S 126TH E AVE,12730 E 31ST ST S & S 126TH E AVE,36.118852,-95.835458,,,,
5303,31st129a,31ST ST S & 129TH E AVE,12855 E 31ST ST S & S 129TH E AVE,36.119035,-95.833805,,,,
5304,31st66Pl,E 31ST ST S&S 66TH E PL,6741 E 31ST ST S & S 66TH E PL,36.11898,-95.901514,,,,
5306,31st70av,E 31ST ST S&S 70TH E AVE,6893 E 31ST ST S & S 70TH E AVE,36.118974,-95.89859,,,,
5310,31st86av,E 31ST ST S&S 86TH E AVE,8471 E 31ST ST S & S 86TH E AVE,36.118992,-95.881995,,,,
5311,31st87av,E 31ST ST S&S 87TH E AVE,8651 E 31ST ST S & S 87TH E AVE,36.118997,-95.879892,,,,
5312,31st88av,E 31ST ST S&S 88TH E AVE,8810 E 31ST ST S & S 88TH E AVE,36.118866,-95.877977,,,,
5313,31st90av,E 31ST ST S&S 90TH E AVE,8967 E 31ST ST S & S 90TH E AVE,36.119021,-95.875274,,,,
5314,31st94av,E 31ST ST S&S 94TH E AVE,9406 E 31ST ST S & S 94TH E AVE,36.118884,-95.870793,,,,
5315,31st94av,E 31ST ST S&S 94TH E AVE,9183 E 31ST ST S & S 94TH E AVE,36.11903,-95.871859,,,,
5316,31stGntt,E 31ST ST S&S GARNETT RD,11314 E 31ST ST S & S GARNETT RD,36.118882,-95.85068,,,,
5317,31stGntt,E 31ST ST S & S GARNETT RD,11271 E 31ST ST S & S GARNETT RD,36.119074,-95.851508,,,,
5321,31stMem,E 31ST ST S&S MEMORIAL DR,8071 E 31ST ST S & S MEMORIAL DR,36.119026,-95.887077,,,,
5322,31stMem,E 31ST ST S&S MEMORIAL DR,8122 E 31ST ST S & S MEMORIAL DR,36.1188,-95.886128,,,,
5323,31stMngo,E 31ST ST S&S MINGO RD,9712 E 31ST ST S & S MINGO RD,36.118887,-95.868115,,,,
5329,31st74Pl,E 31ST ST S&S 74TH E PL,7390 E 31ST ST S & S 74TH E PL,36.118983,-95.894303,,,,
5333,3stLew,E 3RD ST S&S LEWIS AVE,2367 E 3RD ST S & S LEWIS AVE,36.156691,-95.958577,,,,
5334,3stAtl,E 3RD ST S&S ATLANTA AVE,2483 E 3RD ST S & S ATLANTA AVE,36.156665,-95.956269,,,,
5335,3stAtl,E 3RD ST S&S ATLANTA AVE,2520 E 3RD ST S & S ATLANTA AVE,36.156528,-95.955508,,,,
5336,3stBmAv,E 3RD ST S&S BIRMINGHAM AVE,2589 E 3RD ST S & S BIRMINGHAM AVE,36.156638,-95.953972,,,,
5337,3stBmAv,E 3RD ST S&S BIRMINGHAM AVE,2610 E 3RD ST S & S BIRMINGHAM AVE,36.156524,-95.953439,,,,
5338,3stColl,E 3RD ST S&S COLLEGE AVE,3022 E 3RD ST S & S COLLEGE AVE,36.15624,-95.945823,,,,
5339,3stColu,E 3RD ST S&S COLUMBIA AVE,2685 E 3RD ST S & S COLUMBIA AVE,36.156653,-95.95179,,,,
5340,3stColu,E 3RD ST S&S COLUMBIA AVE,2712 E 3RD ST S & S COLUMBIA AVE,36.156532,-95.951209,,,,
5341,3stDel,E 3RD ST S&S DELAWARE AVE,2818 E 3RD ST S & S DELAWARE AVE,36.156377,-95.948943,,,,
5342,3stEvan,E 3RD ST S&S EVANSTON AVE,2887 E 3RD ST S & S EVANSTON AVE,36.156481,-95.947579,,,,
5343,3stGary,E 3RD ST S&S GARY AVE,3181 E 3RD ST S & S GARY AVE,36.156396,-95.943271,,,,
5344,3stFlor,E 3RD ST S&S FLORENCE AVE,3186 E 3RD ST S & S FLORENCE AVE,36.156288,-95.943192,,,,
5345,3stKeno,E 3RD ST S&S KENOSHA AVE,769 E 3RD ST S & S KENOSHA AVE,36.156466,-95.982559,,,,
5346,3stLans,E 3RD ST S&S LANSING AVE,,36.156633,-95.980738,,,,
5347,3stLew,E 3RD ST S&S LEWIS AVE,2416 E 3RD ST S & S LEWIS AVE,36.156465,-95.957784,,,,
5348,3stPeo,E 3RD ST S&S PEORIA AVE,1324 E 3RD ST S & S PEORIA AVE,36.156648,-95.975145,,,,
5349,3stQuin,E 3RD ST S&S QUINCY AVE,1385 E 3RD ST S & S QUINCY AVE,36.156774,-95.97393,,,,
5350,3Ro,E 3RD ST S& ROCKFORD AVE,1485 E 3RD ST S & S ROCKFORD AVE,36.156758,-95.971886,,,,
5351,3Ro,E 3RD ST S& ROCKFORD AVE,1478 E 3RD ST S & S QUINCY AVE,36.15663,-95.97196,,,,
5352,3stTren,E 3RD ST S&S TRENTON AVE,1589 E 3RD ST S & S TRENTON AVE,36.156742,-95.969589,,,,
5353,3stTren,E 3RD ST S&S TRENTON AVE,1616 E 3RD ST S & S TRENTON AVE,36.156616,-95.968928,,,,
5354,3stUtic,E 3RD ST S&S UTICA AVE,1659 E 3RD ST S & S UTICA AVE,36.156752,-95.967972,,,,
5355,3stUtic,E 3RD ST S&S UTICA AVE,1748 E 3RD ST S & S UTICA AVE,36.156589,-95.966574,,,,
5356,3stXanA,E 3RD ST S&S XANTHUS AVE,1979 E 3RD ST S & S XANTHUS AVE,36.156722,-95.963724,,,,
5357,3stXanA,E 3RD ST S&S XANTHUS AVE,2024 E 3RD ST S & S XANTHUS AVE,36.156533,-95.963143,,,,
5358,3stZuni,E 3RD ST S&S ZUNIS AVE,2189 E 3RD ST S & S ZUNIS AVE,36.156679,-95.961081,,,,
5359,41st87av,E 41ST ST S&S 87TH E AVE,8485 E 41ST ST S & S 87TH E AVE,36.104571,-95.881637,,,,
5360,41st118a,E 41ST ST S&S 118TH E AVE,11390 E 41ST ST S & S 118TH E AVE,36.104579,-95.849309,,,,
5361,41st100a,E 41ST ST S&S 100TH E AVE,9875 E 41ST ST S & S 100TH E AVE,36.104536,-95.866663,,,,
5362,41st100a,E 41ST ST S&S 100TH E AVE,10116 E 41ST ST S & S 100TH E AVE,36.104361,-95.865512,,,,
5363,41st102a,E 41ST ST S&S 102ND E AVE,10181 E 41ST ST S & S 102ND E AVE,36.104626,-95.86423,,,,
5364,41st102a,E 41ST ST S&S 102ND E AVE,10274 E 41ST ST S & S 102ND E AVE,36.104318,-95.863435,,,,
5365,41st109a,E 41ST ST S&S 109TH E AVE,10879 E 41ST ST S & S 109TH E AVE,36.104582,-95.856027,,,,
5366,41st109a,E 41ST ST S&S 109TH E AVE,10920 E 41ST ST S & S 109TH E AVE,36.104376,-95.855369,,,,
5367,41st118a,E 41ST ST S&S 118TH E AVE,,36.104535,-95.845638,,,,
5368,41st122a,E 41ST ST S&S 122ND E AVE,12171 E 41ST ST S & S 122ND E AVE,36.104533,-95.841935,,,,
5369,41st129a,E 41ST ST S&S 129TH E AVE,12825 E 41ST ST S & S 129TH E AVE,36.104584,-95.834182,,,,
5370,41st68av,E 41ST ST S&S 68TH E AVE,6661 E 41ST ST S & S 68TH E AVE,36.104503,-95.901933,,,,
5371,41st68av,E 41ST ST S&S 68TH E AVE,6828 E 41ST ST S & S 68TH E AVE,36.104332,-95.900373,,,,
5372,41st70av,E 41ST ST S&S 70TH E AVE,7024 E 41ST ST S & S 70TH E AVE,36.104336,-95.898631,,,,
5373,41st72av,E 41ST ST S&S 72ND E AVE,7077 E 41ST ST S & S 72ND E AVE,36.104484,-95.897521,,,,
5374,41st74av,E 41ST ST S&S 74TH E AVE,7279 E 41ST ST S & S 74TH E AVE,36.104489,-95.895079,,,,
5375,41st74av,E 41ST ST S&S 74TH E AVE,7336 E 41ST ST S & S 74TH E AVE,36.104339,-95.894247,,,,
5376,41st40Pl,E 41ST ST S&E 40TH PL S,,36.10435,-95.871738,,,,
5377,41stAtl,E 41ST ST S&S ATLANTA AVE,2512 E 41ST ST S & S ATLANTA AVE,36.104209,-95.955441,,,,
5378,41stAtlP,E 41ST ST S&S ATLANTA PL,2531 E 41ST ST S & S ATLANTA PL,36.104295,-95.954928,,,,
5379,41stBmPl,E 41ST ST S&S BIRMINGHAM PL,2621 E 41ST ST S & S BIRMINGHAM PL,36.104049,-95.952402,,,,
5380,41stCuP,E 41ST ST S&S COLUMBIA PL,2752 E 41ST ST S & S COLUMBIA PL,36.104234,-95.949865,,,,
5381,41stDar,E 41ST ST S&S DARLINGTON AVE,5114 E 41ST ST S & S DARLINGTON AVE,36.104496,-95.918724,,,,
5382,41stDar,E 41ST ST S&S DARLINGTON AVE,5230 E 41ST ST S & S DARLINGTON AVE,36.104299,-95.916922,,,,
5383,41stDel,E 41ST ST S&S DELAWARE AVE,2777 E 41ST ST S & S DELAWARE AVE,36.104324,-95.949407,,,,
5384,41stDelP,E 41ST ST S&S DELAWARE PL,2829 E 41ST ST S & S DELAWARE PL,36.104359,-95.948257,,,,
5385,41stFlor,E 41ST ST S&S FLORANCE AVE,3109 E 41ST ST S & S FLORANCE AVE,36.104377,-95.944018,,,,
5386,41stFlor,E 41ST ST S&S FLORENCE AVE,3114 E 41ST ST S & S FLORENCE AVE,36.104234,-95.943689,,,,
5387,41stFloP,E 41ST ST S&S FLORENCE PL,3152 E 41ST ST S & S FLORENCE PL,36.104245,-95.94191,,,,
5388,41stGntt,S GARNETT RD&E 41ST ST S,11189 E 41ST ST S & S GARNETT RD,36.10459,-95.85225,,,,
5389,41stHarv,S HARVARD AVE&E 41ST ST S,3187 E 41ST ST S & S HARVARD AVE,36.104413,-95.940623,,,,
5390,41stFul,E 41ST ST S&S FULTON AVE,5437 E 41ST ST S & S FULTON AVE,36.104438,-95.914613,,,,
5392,41stLew,E 41ST ST S&S LEWIS AVE,2420 E 41ST ST S & S LEWIS AVE,36.104135,-95.957537,,,,
5393,41stMem,E 41ST ST S&S MEMORIAL DR,7963 E 41ST ST S & S MEMORIAL DR,36.104541,-95.887403,,,,
5394,41st83av,E 41ST ST S & 83RD E AVE,8542 E 41ST ST/BROKEN ARROW EXPY & S 83RD E AVE,36.10435,-95.88118,,,,
5395,41stMngo,E 41ST ST S&S MINGO RD,9383 E 41ST ST S & S MINGO RD,36.104553,-95.86918,,,,
5396,41stMngo,E 41ST ST S&S MINGO RD,9794 E 41ST ST S & S MINGO RD,36.104366,-95.867554,,,,
5397,41stPeo,E 41ST ST S&S PEORIA AVE,1320 E 41ST ST S & S PEORIA AVE,36.104228,-95.975216,,,,
5398,41stRock,E 41ST ST S&S ROCKFORD AVE,1401 E 41ST ST S & S ROCKFORD AVE/S QUINCY AVE,36.104369,-95.973552,,,,
5399,41stQuin,E 41ST ST S&S QUINCY AVE,1404 E 41ST ST S & S QUINCY AVE,36.104237,-95.973345,,,,
5400,41stRock,E 41ST ST S&S ROCKFORD AVE,1470 E 41ST ST S & S ROCKFORD AVE,36.104224,-95.971742,,,,
5401,41stSher,S SHERIDAN RD&E 41ST ST S,6524 E 41ST ST S & S SHERIDAN RD,36.1043,-95.904113,,,,
5402,41stTroo,E 41ST ST S&S TROOST PL,1664 E 41ST ST S & S TROOST PL,36.104247,-95.967299,,,,
5403,41stUtic,E 41ST ST S&S UTICA AVE,1677 E 41ST ST S & S UTICA AVE,36.104352,-95.967186,,,,
5404,41stVict,E 41ST ST S&S VICTOR AVE,1804 E 41ST ST S & S VICTOR AVE,36.104222,-95.96556,,,,
5405,41stYork,E 41ST ST S&S YORKTOWN AVE,1951 E 41ST ST S & S YORKTOWN AVE,36.104332,-95.962706,,,,
5406,41stWh,E 41ST ST S&S WHEELING AVE,1952 E 41ST ST S & S WHEELING AVE,36.104216,-95.962661,,,,
5407,41stYa,E 41ST ST S&S YALE AVE,4875 E 41ST ST S & S YALE AVE,36.104454,-95.922793,,,,
5408,41stYa,E 41ST ST S&S YALE AVE,5058 E 41ST ST S & S YALE AVE,36.104266,-95.919547,,,,
5409,47Pl93av,E 47TH PL S&S 93RD E AVE,9518 E 47TH PL S & S 93RD E AVE,36.094722,-95.870086,,,,
5410,46st83av,E 46TH ST S&S 83RD E AVE,8151 E 46TH ST S & S 83RD E AVE,36.097866,-95.884267,,,,
5411,46st83av,E 46TH ST S&S 83RD E AVE,8192 E 46TH ST S & S 83RD E AVE,36.097763,-95.883568,,,,
5412,46st86av,E 46TH ST S&S 86TH E AVE,8551 E 46TH ST S & S 86TH E AVE,36.09787,-95.881106,,,,
5413,46st91av,E 46TH ST S&S 91ST E AVE,9059 E 46TH ST S & S 91ST E AVE,36.097875,-95.876156,,,,
5414,46st86av,E 46TH ST S&S 86TH E AVE,8986 E 46TH ST S & S 86TH E AVE,36.097778,-95.876935,,,,
5415,46stMngo,E 46TH ST S&S MINGO RD,9321 E 46TH ST S & S MINGO RD,36.096855,-95.872672,,,,
5416,46st93av,E 46TH ST S&S 93RD E AVE,9312 E 46TH ST S & S 93RD E AVE,36.09681,-95.8728,,,,
5417,46stMem,E 46TH ST S&S MEMORIAL DR,8108 E 46TH ST S & S MEMORIAL DR,36.097763,-95.886125,,,,
5418,47PlMngo,E 47TH PL S&S MINGO RD,9546 E 47TH PL S & S MINGO RD,36.094827,-95.86952,,,,
5420,4stHarv,E 4TH ST S&S HARVARD AVE,,36.156068,-95.940754,,,,
5421,4stHarv,E 4TH ST S  &S HARVARD AVE,,36.155908,-95.940078,,,,
5422,4stLou,E 4TH ST S&S LOUISVILLE AVE,,36.156039,-95.936065,,,,
5426,6stDet,E 6TH ST S&S DETROIT AVE,346 E 6TH ST S & S DETROIT AVE,36.151871,-95.985426,,,,
5427,6stElg,E 6TH ST S&S ELGIN AVE,373 E 6TH ST S & S ELGIN AVE,36.15214,-95.985205,,,,
5428,6stLans,E 6TH ST S&S LANSING AVE,,36.152676,-95.980688,,,,
5429,6stMad,E 6TH ST S&S MADISON AVE,,36.152834,-95.980775,,,,
5430,6stMad,E 6TH ST S&S MADISON AVE,,36.15282,-95.979961,,,,
5431,6stOw,E 6TH ST S&S OWASSO AVE,1151 E 6TH ST S & S OWASSO AVE,36.152811,-95.977894,,,,
5432,6stOw,E 6TH ST S&S OWASSO AVE,E 6TH ST S & S OWASSO AVE/S PEORIA AVE,36.152686,-95.977297,,,,
5433,6stQuin,E 6TH ST S&S QUINCY AVE,1385 E 6TH ST S & S QUINCY AVE,36.152222,-95.973602,,,,
5434,6stQuak,E 6TH ST S&S QUAKER AVE,1392 E 6TH ST S & S QUAKER AVE,36.152088,-95.973456,,,,
5435,6stRock,E 6TH ST S&S ROCKFORD AVE,1489 E 6TH ST S & S ROCKFORD AVE,36.152223,-95.971841,,,,
5436,6stRock,E 6TH ST S&S ROCKFORD AVE,1510 E 6TH ST S & S ROCKFORD AVE,36.152072,-95.971517,,,,
5437,6stTroo,E 6TH ST S&S TROOST AVE,1601 E 6TH ST S & S TROOST AVE,36.152197,-95.969617,,,,
5438,6stUtic,E 6TH ST S&S UTICA AVE,1647 E 6TH ST S & S UTICA AVE,36.152199,-95.967815,,,,
5439,Adm103p,E ADMIRAL PL& 103TH E PL,10149 E ADMIRAL PL & N 106TH E PL/S 106TH E PL,36.160851,-95.863379,,,,
5440,Adm106p,E ADMIRAL PL& 106TH E PL,E ADMIRAL PL & N 106TH E PL/S 106TH E PL,36.160832,-95.858432,,,,
5441,Adm120a,E ADMIRAL PL&N 120TH E AVE,11867 E ADMIRAL PL & N 120TH E AVE,36.16072,-95.844056,,,,
5442,Adm78av,E ADMIRAL PL&S 78TH E AVE,7499 E ADMIRAL PL & S 78TH E AVE,36.160918,-95.890335,,,,
5443,Adm89av,E ADMIRAL PL& 89TH E AVE,8889 E ADMIRAL PL & N 89TH E AVE/S 89TH E AVE,36.160887,-95.878247,,,,
5444,Adm91av,E ADMIRAL PL&N 91ST E AVE,8971 E ADMIRAL PL & N 91ST E AVE,36.160888,-95.87609,,,,
5445,AdmAlgh,E ADMIRAL PL&S ALLEGHENY AVE,5066 E ADMIRAL PL & S ALLEGHENY AVE,36.160687,-95.918802,,,,
5446,AdmDar,E ADMIRAL PL& DARLINGTON AVE,5312 E ADMIRAL PL & N DARLINGTON AVE/S DARLINGTON AVE,36.160695,-95.917741,,,,
5447,AdmJop,E ADMIRAL PL&S JOPLIN AVE,5709 E ADMIRAL PL & S JOPLIN AVE,36.160883,-95.913395,,,,
5448,AdmDar,E ADMIRAL PL&S DARLINGTON AVE,5584 E ADMIRAL PL & S DARLINGTON AVE,36.160689,-95.913704,,,,
5449,AdmJop,E ADMIRAL PL&S JOPLIN AVE,5964 E ADMIRAL PL & S JOPLIN AVE,36.160688,-95.909776,,,,
5450,AdmMem,ADMIRAL PL & MEMORIAL,8510 E ADMIRAL PL & N MEMORIAL DR/S MEMORIAL DR,36.160665,-95.886239,,,,
5451,AdmMem,E ADMIRAL PL& MEMORIAL DR,8568 E ADMIRAL PL & S MEMORIAL DR/N MEMORIAL DR,36.160665,-95.883687,,,,
5452,AdmNwdA,E ADMIRAL PL&N NORWOOD AVE,6320 E ADMIRAL PL & N NORWOOD AVE,36.160704,-95.906509,,,,
5453,AdmSand,E ADMIRAL PL&N SANDUSKY AVE,4189 E ADMIRAL PL & N SANDUSKY AVE,36.160842,-95.92804,,,,
5454,AdmSand,E ADMIRAL PL&N SANDUSKY AVE,4410 E ADMIRAL PL & N SANDUSKY AVE,36.160646,-95.927556,,,,
5455,AdmSher,E ADMIRAL PL&S SHERIDAN RD,6528 E ADMIRAL PL & S SHERIDAN RD/N SHERIDAN RD,36.160687,-95.904212,,,,
5456,AdmUrba,E ADMIRAL PL&N URBANA AVE,4608 E ADMIRAL PL & N URBANA AVE,36.160661,-95.92532,,,,
5457,AdmYa,ADMIRAL PL & YALE,4851 E ADMIRAL PL & N YALE AVE,36.160852,-95.922922,,,,
5458,AdmYa,ADMIRAL PL & YALE,4920 E ADMIRAL PL & N YALE AVE,36.160656,-95.921975,,,,
5459,AdmAlgh,E ADMIRAL PL&S ALLEGHENY AVE,4925 E ADMIRAL PL & S ALLEGHENY AVE,36.160857,-95.921932,,,,
5460,Adm85av,E ADMIRAL PL&S 85TH E AVE,8459 E ADMIRAL PL & S 85TH E AVE,36.160866,-95.883577,,,,
5461,Adm101a,E ADMIRAL PL&S 101ST E AVE,10106 E ADMIRAL PL & S 101ST E AVE,36.160586,-95.864875,,,,
5462,Adm106p,E ADMIRAL PL& 106TH E PL,E ADMIRAL PL & N 106TH E PL/S 106TH E PL,36.160539,-95.857522,,,,
5463,Adm109a,E ADMIRAL PL&S 109TH E AVE,10825 E ADMIRAL PL & S 109TH E AVE,36.160808,-95.854902,,,,
5464,Adm117a,E ADMIRAL PL&S 117TH E AVE,11722 E ADMIRAL PL & S 117TH E AVE,36.160593,-95.846136,,,,
5465,Adm67av,E ADMIRAL PL&N 67TH E AVE,6637 E ADMIRAL PL & N 67TH E AVE/S 67TH E AVE,36.160895,-95.903022,,,,
5466,Adm68av,E ADMIRAL PL&S 68TH E AVE,6718 E ADMIRAL PL & S 68TH E AVE/N 67TH E AVE,36.160653,-95.901465,,,,
5467,Adm69av,E ADMIRAL PL&S 69TH E AVE,6843 E ADMIRAL PL & S 69TH E AVE,36.160885,-95.900465,,,,
5468,Adm69av,E ADMIRAL PL&S 69TH E AVE,6988 E ADMIRAL PL & S 69TH E AVE,36.160665,-95.899123,,,,
5469,Adm72av,E ADMIRAL PL&S 72ND E AVE,7218 E ADMIRAL PL & S 72ND E AVE,36.160653,-95.896528,,,,
5470,Adm73av,E ADMIRAL PL&S 73RD E AVE,7247 E ADMIRAL PL & S 73RD E AVE,36.160881,-95.896289,,,,
5471,Adm73av,E ADMIRAL PL&S 73RD E AVE,7332 E ADMIRAL PL & S 73RD E AVE,36.160646,-95.895299,,,,
5472,Adm78av,E ADMIRAL PL&S 78TH E AVE,7808 E ADMIRAL PL & S 78TH E AVE,36.160636,-95.890056,,,,
5473,Adm89av,E ADMIRAL PL&S 89TH E AVE,8912 E ADMIRAL PL & S 89TH E AVE,36.160609,-95.877433,,,,
5474,Adm91av,E ADMIRAL PL&S 91ST E AVE,9152 E ADMIRAL PL & S 91ST E AVE,36.16063,-95.874566,,,,
5475,AdmDar,E ADMIRAL PL& DARLINGTON AVE,5031 E ADMIRAL PL & N DARLINGTON AVE/S DARLINGTON AVE,36.160872,-95.919515,,,,
5476,AdmGntt,E ADMIRAL PL&S GARNETT RD,11312 E ADMIRAL PL & S GARNETT RD,36.160524,-95.85084,,,,
5478,AdmMem,E ADMIRAL PL& MEMORIAL DR,7881 E ADMIRAL PL & N MEMORIAL DR/S MEMORIAL DR,36.160834,-95.887364,,,,
5479,AdmSher,E ADMIRAL PL& SHERIDAN RD,6459 E ADMIRAL PL & N SHERIDAN RD/S SHERIDAN RD,36.160873,-95.904959,,,,
5480,Adm101a,E ADMIRAL PL&S 101ST E AVE,10174 E ADMIRAL PL & S 101ST E AVE,36.16056,-95.86243,,,,
5481,ApchColu,E APACHE ST&N COLUMBIA AVE,2683 E APACHE ST & N COLUMBIA AVE,36.191691,-95.951743,,,,
5482,ApchCuP,E APACHE ST&N COLUMBIA PL,2712 E APACHE ST & N COLUMBIA PL,36.191516,-95.950044,,,,
5483,ApchFlor,E APACHE ST&N FLORENCE AVE,2861 E APACHE ST & N FLORENCE AVE,36.191687,-95.945843,,,,
5484,ApchCuP,E APACHE ST&N COLUMBIA PL,2896 E APACHE ST & N COLUMBIA PL,36.191505,-95.944912,,,,
5485,ApchFlor,E APACHE ST&N FLORENCE AVE,2939 E APACHE ST & N FLORENCE AVE,36.191677,-95.94363,,,,
5486,ApchHarv,E APACHE ST&N HARVARD AVE,3332 E APACHE ST & N HARVARD AVE,36.191509,-95.939945,,,,
5487,ApchNHvn,E APACHE ST&N NEW HAVEN AVE,3435 E APACHE ST & N NEW HAVEN AVE,36.191669,-95.938847,,,,
5488,ApchLew,E APACHE ST&N LEWIS AVE,2442 E APACHE ST & N LEWIS AVE,36.191526,-95.956667,,,,
5489,ApchLew,APACHE & LEWIS,2281 E APACHE ST & N LEWIS AVE,36.191729,-95.95847,,,,
5490,ApchMari,E APACHE ST&N MARION AVE,,36.191531,-95.93369,,,,
5491,ApchNHvn,E APACHE ST&N NEW HAVEN AVE,,36.19167,-95.933838,,,,
5492,ApchOswe,E APACHE ST&N OSWEGO AVE,4026 E APACHE ST & N OSWEGO AVE,36.191538,-95.931679,,,,
5493,ApchUrba,E APACHE ST&N URBANA AVE,4589 E APACHE ST & N URBANA AVE,36.191663,-95.925461,,,,
5494,ApchUrba,E APACHE ST&N URBANA AVE,4612 E APACHE ST & N URBANA AVE,36.191539,-95.924879,,,,
5495,ApchYa,E APACHE ST&N YALE AVE,4673 E APACHE ST & N YALE AVE,36.191687,-95.923196,,,,
5496,ApchYa,YALE & APACHE,4906 E APACHE ST & N YALE AVE,36.191501,-95.922155,,,,
5497,ApchYork,E APACHE ST&N YORKTOWN AVE,2126 E APACHE ST & N YORKTOWN AVE,36.191539,-95.961397,,,,
5498,123AR,N 123RD E AVE&E ARCHER ST,185 E ARCHER ST & N 124TH E AVE/N 123RD E AVE,36.162776,-95.83969,,,,
5499,ArchBos,E ARCHER ST&N BOSTON AVE,,36.15771,-95.992253,,,,
5500,ArchBos,E ARCHER ST&N BOSTON AVE,,36.15803,-95.990924,,,,
5501,ArchElg,E ARCHER ST&N ELGIN AVE,,36.158912,-95.988838,,,,
5502,ArchElg,E ARCHER ST&N ELGIN AVE,426 E ARCHER ST & N ELGIN AVE,36.159028,-95.988113,,,,
5503,ArchGrnw,E ARCHER ST&N GREENWOOD AVE,571 E ARCHER ST & N GREENWOOD AVE,36.15974,-95.986495,,,,
5504,ArchMa,E ARCHER ST&N MAIN ST,,36.157365,-95.992826,,,,
5505,IndpCin,E INDEPENDENCE ST&N CINCINNATI AVE,230 E INDEPENDENCE ST & N CINCINNATI AVE/N DETROIT AVE,36.166034,-95.99316,,,,
5507,JHFBCin,E JOHN HOPE FRANKLIN BLVD&MARTIN LUTHER KING JR BLVD,E JOHN HOPE FRANKLIN BLVD & N CINCINNATI AVE,36.164207,-95.993214,,,,
5508,Pine72av,E PINE ST&N 72ND E AVE,7248 E PINE ST & N 72ND E AVE,36.17701,-95.895894,,,,
5509,PinePit,E PINE ST&N PITTSBURG AVE,3999 E PINE ST & N PITTSBURG AVE,36.177191,-95.931463,,,,
5510,PineEvan,E PINE ST&N EVANSTON AVE,,36.177066,-95.947149,,,,
5511,Pine108a,E PINE ST&N 108TH E AVE,11202 E PINE ST & N 108TH E AVE,36.176953,-95.85414,,,,
5512,Pine107a,E PINE ST&N 107TH E AVE,,36.176935,-95.858359,,,,
5513,Pine107a,E PINE ST&N 107TH E AVE,10769 E PINE ST & N 107TH E AVE,36.177112,-95.859005,,,,
5514,Pine75av,E PINE ST&N 75TH E AVE,7520 E PINE ST & N 75TH E AVE,36.177001,-95.892686,,,,
5515,Pine89av,E PINE ST&N 89TH E AVE,,36.17711,-95.880117,,,,
5516,Pine91av,E PINE ST&N 91ST E AVE,9122 E PINE ST & N 91ST E AVE,36.176975,-95.874479,,,,
5517,Pine93av,E PINE ST&N 93RD E AVE,9171 E PINE ST & N 93RD E AVE,36.177109,-95.873859,,,,
5518,Pine95av,E PINE ST&N 95TH E AVE,9566 E PINE ST & N 95TH E AVE,36.176962,-95.870504,,,,
5519,PineAtlC,E PINE ST&N ATLANTA CT,2542 E PINE ST & N ATLANTA CT,36.177074,-95.954594,,,,
5520,PineCin,E PINE ST & MARTIN LUTHER KING JR BLVD,214 E PINE ST & N CINCINNATI AVE,36.176852,-95.993145,,,,
5521,PineElg,E PINE ST&N ELGIN AVE,259 E PINE ST & N ELGIN AVE,36.177019,-95.992079,,,,
5522,PineColl,E PINE ST&N COLLEGE AVE,3032 E PINE ST & N COLLEGE AVE,36.177064,-95.944896,,,,
5523,PineColl,E PINE ST&N COLLEGE AVE,2951 E PINE ST & N COLLEGE AVE,36.17718,-95.945911,,,,
5524,PineColu,E PINE ST&N COLUMBIA AVE,2679 E PINE ST & N COLUMBIA AVE,36.177192,-95.952335,,,,
5525,PineCuP,E PINE ST&N COLUMBIA PL,,36.177067,-95.9508,,,,
5526,PineDel,E PINE ST&N DELAWARE AVE,,36.177069,-95.949493,,,,
5527,PineDel,E PINE ST&N DELAWARE AVE,,36.177207,-95.950166,,,,
5528,PineElg,E PINE ST&N ELGIN AVE,,36.176882,-95.990835,,,,
5529,PineEvan,E PINE ST&N EVANSTON AVE,,36.177205,-95.947797,,,,
5530,PineFkft,E PINE ST&N FRANKFORT AVE,516 E PINE ST & N FRANKFORT AVE,36.176886,-95.988611,,,,
5531,PineFkft,E PINE ST&N FRANKFORT AVE,463 E PINE ST & N FRANKFORT AVE,36.17701,-95.989829,,,,
5532,PineFul,E PINE ST&N FULTON AVE,5342 E PINE ST & N FULTON AVE,36.177041,-95.91536,,,,
5533,PineFul,E PINE ST&N FULTON AVE,5287 E PINE ST & N FULTON AVE,36.17717,-95.915781,,,,
5534,PineGntt,E PINE ST & GARNETT RD,11285 E PINE ST & N GARNETT RD,36.177138,-95.851554,,,,
5535,PineGary,E PINE ST&N GARY AVE,3222 E PINE ST & N GARY AVE,36.177061,-95.941839,,,,
5536,PineGary,E PINE ST&N GARY AVE,,36.177199,-95.942256,,,,
5537,PineGrnw,GREENWOOD & PINE,620 E PINE ST & N GREENWOOD AVE,36.176884,-95.98643,,,,
5538,PineGrnw,E PINE ST&N GREENWOOD AVE,581 E PINE ST & N GREENWOOD AVE,36.177011,-95.987201,,,,
5539,PineGnwP,E PINE ST&N GREENWOOD PL,676 E PINE ST & N GREENWOOD PL,36.17703,-95.985604,,,,
5540,PineHart,E PINE ST&N HARTFORD AVE,,36.176891,-95.984416,,,,
5541,PineHart,E PINE ST&N HARTFORD AVE,,36.177023,-95.984771,,,,
5542,PineHarv,E PINE ST&N HARVARD AVE,3378 E PINE ST & N HARVARD AVE,36.177044,-95.939728,,,,
5543,PineIndy,E PINE ST&N INDIANAPOLIS AVE,3345 E PINE ST & N INDIANAPOLIS AVE,36.177224,-95.939957,,,,
5544,PineMidP,E PINE ST&N MIDLAND PL,836 E PINE ST & N MIDLAND PL,36.176886,-95.981472,,,,
5545,PineKgtP,E PINE ST&N KINGSTON PL,,36.177026,-95.909409,,,,
5546,PineMad,E PINE ST&N MADISON AVE,1020 E PINE ST & N MADISON AVE,36.176892,-95.979541,,,,
5547,PineLans,E PINE ST&N LANSING AVE,795 E PINE ST & N LANSING AVE,36.177021,-95.982037,,,,
5548,PineZuni,PINE & LEWIS,2286 E PINE ST & N ZUNIS AVE,36.177005,-95.9584,,,,
5549,PineLew,E PINE ST&N LEWIS AVE,2241 E PINE ST & N LEWIS AVE,36.177199,-95.959078,,,,
5550,PineLew,E PINE ST&N LEWIS AVE,2402 E PINE ST & N LEWIS AVE/N LEWIS PL,36.17704,-95.957442,,,,
5551,PineMem,E PINE ST&N MEMORIAL DR,,36.177009,-95.879676,,,,
5552,PineNorf,E PINE ST&N NORFOLK AVE,1140 E PINE ST & N NORFOLK AVE,36.17687,-95.97744,,,,
5553,PineNorf,E PINE ST&N NORFOLK AVE,1089 E PINE ST & N NORFOLK AVE,36.177018,-95.978104,,,,
5554,PineMari,E PINE ST&N MARION AVE,3878 E PINE ST & N MARION AVE,36.17706,-95.934245,,,,
5555,PineOswe,E PINE ST&N OSWEGO AVE,3877 E PINE ST & N OSWEGO AVE,36.177223,-95.93429,,,,
5556,PineOw,E PINE ST&N OWASSO AVE,1163 E PINE ST & N OWASSO AVE,36.177029,-95.977107,,,,
5557,PinePeo,E PINE ST&N PEORIA AVE,1338 E PINE ST & N PEORIA AVE,36.176843,-95.975149,,,,
5558,PinePit,E PINE ST&N PITTSBURG AVE,4116 E PINE ST & N PITTSBURG AVE,36.177055,-95.931195,,,,
5559,PineSher,E PINE ST&N SHERIDAN RD,6516 E PINE ST & N SHERIDAN RD,36.177019,-95.903497,,,,
5560,PineSher,E PINE ST&N SHERIDAN RD,6469 E PINE ST & N SHERIDAN RD,36.177199,-95.904911,,,,
5561,PineTren,E PINE ST&N TRENTON AVE,1577 E PINE ST & N TRENTON AVE,36.177058,-95.9699,,,,
5562,PinePeo,E PINE ST&N PEORIA AVE,1528 E PINE ST & N PEORIA AVE,36.176942,-95.97078,,,,
5563,PineTol,E PINE ST&N TOLEDO AVE,4618 E PINE ST & N TOLEDO AVE,36.177034,-95.926733,,,,
5564,PineTol,E PINE ST&N TOLEDO AVE,4607 E PINE ST & N TOLEDO AVE/N URBANA AVE,36.177166,-95.926932,,,,
5565,PineTroo,E PINE ST&N TROOST AVE,1652 E PINE ST & N TROOST AVE,36.176971,-95.96799,,,,
5567,PineVanP,E PINE ST&N VANDALIA PL,4705 E PINE ST & N VANDALIA PL,36.177169,-95.924438,,,,
5568,PineWh,E PINE ST&N WHEELING AVE,1966 E PINE ST & N WHEELING AVE,36.177018,-95.964257,,,,
5569,PineWh,E PINE ST&N WHEELING AVE,1871 E PINE ST & N WHEELING AVE,36.17712,-95.965657,,,,
5570,PineWins,E PINE ST&N WINSTON AVE,4890 E PINE ST & N WINSTON AVE,36.17702,-95.92262,,,,
5571,PineYa,E PINE ST&N YALE AVE,4857 E PINE ST & N YALE AVE,36.177169,-95.922997,,,,
5572,PineYork,E PINE ST&N YORKTOWN AVE,2085 E PINE ST & N YORKTOWN AVE,36.177147,-95.962656,,,,
5573,PineZuni,E PINE ST&N ZUNIS AVE,2232 E PINE ST & N ZUNIS AVE,36.177021,-95.959187,,,,
5574,Virg73av,E VIRGIN ST&N 73RD E AVE,7275 E VIRGIN ST & N 73RD E AVE,36.184417,-95.895881,,,,
5575,Virg73av,E VIRGIN ST&N 73RD E AVE,,36.184249,-95.895426,,,,
5576,VirgMad,E VIRGIN ST&N MADISON AVE,,36.18436,-95.98019,,,,
5577,VirgMad,VIRGIN & MADISON,E VIRGIN ST & N MADISON AVE,36.184237,-95.979824,,,,
5578,VirgPeo,E VIRGIN ST&N PEORIA AVE,,36.184306,-95.976376,,,,
5579,VirgQuak,E VIRGIN ST&N QUAKER AVE,1324 E VIRGIN ST & N QUAKER AVE,36.184191,-95.974582,,,,
5580,VirgQuin,E VIRGIN ST&N QUINCY AVE,1426 E VIRGIN ST & N QUINCY AVE,36.184202,-95.973102,,,,
5581,VirgRock,VIRGIN & ROCKFORD,1477 E VIRGIN ST & N ROCKFORD AVE,36.18429,-95.97249,,,,
5582,VirgStLu,E VIRGIN ST&N ST LOUIS AVE,1562 E VIRGIN ST & N ST LOUIS AVE,36.184214,-95.970717,,,,
5583,VirgUtic,E VIRGIN ST&N UTICA AVE,1615 E VIRGIN ST & N UTICA AVE,36.184315,-95.969598,,,,
5584,VirgUtic,E VIRGIN ST&N UTICA AVE,1693 E VIRGIN ST & N UTICA AVE,36.184325,-95.967915,,,,
5585,VirgXanA,E VIRGIN ST&N XANTHUS AVE,1839 E VIRGIN ST & N XANTHUS AVE,36.184359,-95.965503,,,,
5586,VirgTren,E VIRGIN ST&N TRENTON AVE,16666 E VIRGIN ST & N TRENTON AVE,36.184235,-95.968451,,,,
5588,GiMuGiRd,GILCREASE MUSEUM&N GILCREASE MUSEUM,1400 GILCREASE MUSEUM & N GILCREASE MUSEUM RD/N 25TH W AVE,36.175222,-96.020583,,,,
5589,GiRdCPB,S 25TH W AVE & CHARLES PAGE BLVD,377/2401 S GILCREASE MUSEUM RD/S 25TH W AVE & CHARLES PAGE BLVD,36.152094,-96.020254,,,,
5590,GiRdCPB,S 25TH W AVE & CHARLES PAGE BLVD,265 S GILCREASE MUSEUM RD/S 25TH W AVE & CHARLES PAGE BLVD,36.153386,-96.020256,,,,
5591,Hud41st,S HUDSON AVE&E 41ST ST S,3971 S HUDSON AVE & E 41ST ST S,36.105785,-95.913223,,,,
5592,KeBAHick,W KENOSHA ST&N HICKORY,1067 W KENOSHA ST/E 71ST ST S & N HICKORY AVE,36.061048,-95.806,,,,
5593,KeBAAsh,W KENOSHA ST&N ASH AVE,185 W KENOSHA ST/E 71ST ST S & N ASH AVE,36.061071,-95.792022,,,,
5594,KeBAAspn,W KENOSHA ST&N ASPEN AV,2156 W KENOSHA ST/E 71ST ST S & N ASPEN AVE/S 145TH E AVE,36.060783,-95.814797,,,,
5595,KeBABrch,W KENOSHA ST&N BIRCH AV,270 W KENOSHA ST/E 71ST ST S & N BIRCH AVE,36.060904,-95.792954,,,,
5596,KeBAPcnP,W KENOSHA ST&N PECAN PL,1020 W KENOSHA ST/E 71ST ST S & N PECAN PL,36.060847,-95.804385,,,,
5597,123aArch,N 123RD E AVE&E ARCHER ST,141 N 123RD E AVE & E ARCHER ST,36.162577,-95.840196,,,,
5598,123aAdmC,N 123RD E AVE&E ADMIRAL CT,54 N 123RD E AVE & E ADMIRAL CT,36.161491,-95.840633,,,,
5599,124aAdmC,N 124TH E AVE&E ADMIRAL CT,56 N 124TH E AVE & E ADMIRAL CT,36.16134,-95.838886,,,,
5600,129aAdm,S 129TH E AVE&E ADMIRAL PL,60 S 129TH E AVE & E ADMIRAL PL,36.159674,-95.833496,,,,
5601,129aSkDr,S 129TH E AVE&E SKELLY DR,216 S 129TH E AVE & E SKELLY DR,36.15622,-95.833483,,,,
5602,AspnKeBA,N ASPEN AVE&W KENOSHA,826 N ASPEN AVE/S 145TH E AVE & W KENOSHA ST/E 71ST ST S,36.060085,-95.815472,,,,
5603,AspnGree,N ASPEN AVE&W GREELEY,609 N ASPEN AVE/S 145TH E AVE & W GREELEY ST,36.057596,-95.815198,,,,
5604,AspnDtBA,N ASPEN AVE&W DETROIT,319 N ASPEN AVE/S 145TH E AVE & W DETROIT ST,36.054477,-95.81519,,,,
5605,AspnDtBA,N ASPEN AVE&W DETROIT,254 N ASPEN AVE/S 145TH E AVE & W DETROIT ST,36.053821,-95.815459,,,,
5606,CinLatP,MARTIN LUTHER KING JR BLVD & E LATIMER PL,1122 N CINCINNATI AVE & E LATIMER PL,36.169458,-95.993585,,,,
5607,CinMrsh,MARTIN LUTHER KING JR BLVD &E MARSHALL ST,1221 N CINCINNATI AVE & E MARSHALL ST,36.171897,-95.993416,,,,
5608,CinMrsh,MARTIN LUTHER KING JR BLVD & E MARSHALL ST,1192 N CINCINNATI AVE & E MARSHALL ST,36.171306,-95.993616,,,,
5609,CinNwtP,MARTIN LUTHER KING JR BLVD &E NEWTON PL,1319 N CINCINNATI AVE & E NEWTON PL,36.174132,-95.993413,,,,
5610,CinPine,MARTIN LUTHER KING JR BLVD & E PINE ST,N CINCINNATI AVE & E PINE ST,36.176103,-95.993636,,,,
5611,CCJasp,N COUNTRY CLUB DR&W JASPER ST,,36.166866,-96.003323,,,,
5613,DetJHFB,N DETROIT AVE&E JOHN HOPE FRANKLIN,N DETROIT AVE & E JOHN HOPE FRANKLIN BLVD,36.164597,-95.992776,,,,
5614,ElgIndp,N ELGIN AVE&E INDEPENDENCE ST,901 N ELGIN AVE & E INDEPENDENCE ST,36.166859,-95.991225,,,,
5615,GnttMrsh,N GARNETT RD&E MARSHALL ST,1186 N GARNETT RD & E MARSHALL ST,36.170953,-95.851218,,,,
5616,GnttPine,N GARNETT RD&E PINE ST,1488 N GARNETT RD & E PINE ST,36.176925,-95.851252,,,,
5617,GrnwLatP,N GREENWOOD AVE&E LATIMER PL,1131 N GREENWOOD AVE & E LATIMER PL,36.170355,-95.986712,,,,
5618,GiRdCamr,S 25TH W AVE & W CAMERON,331 N GILCREASE MUSEUM RD/N 25TH W AVE & W CAMERON ST,36.158194,-96.020305,,,,
5619,GiRdCamr,N GILCREASE MUSEUM RD/N 25TH W AVE&,268 N GILCREASE MUSEUM RD/N 25TH W AVE & W CAMERON ST,36.157734,-96.020466,,,,
5620,GiRdEasC,N GILCREASE MUSEUM RD & W EASTON CT,550 N GILCREASE MUSEUM RD/N 25TH W AVE & W EASTON CT,36.160297,-96.02037,,,,
5621,GiRdEasP,S 25TH W AVE & W EASTON,519 N GILCREASE MUSEUM RD/N 25TH W AVE & W EASTON PL,36.159992,-96.020265,,,,
5622,GiRdEd,N GILCREASE MUSEUM RD & N 25TH W AVE,N GILCREASE MUSEUM RD/N 25TH W AVE & W EDISON ST,36.161774,-96.019785,,,,
5623,GrnwArch,N GREENWOOD AVE&E ARCHER ST,129 N GREENWOOD AVE & E ARCHER ST,36.160096,-95.986165,,,,
5624,GrnwCamr,N GREENWOOD AVE&E CAMERON ST,174 N GREENWOOD AVE & E CAMERON ST,36.160527,-95.986522,,,,
5625,GrnwMarP,N GREENWOOD AVE&E MARSHALL PL,1217 N GREENWOOD AVE & E MARSHALL PL,36.173081,-95.98672,,,,
5626,GrnwMrsh,N GREENWOOD AVE&E MARSHALL ST,1184 N GREENWOOD AVE & E MARSHALL ST,36.171698,-95.986887,,,,
5627,GrnwNwtP,N GREENWOOD AVE&E NEWTON PL,1282 N GREENWOOD AVE & E NEWTON PL,36.173659,-95.986891,,,,
5628,GrnwNwtP,N GREENWOOD AVE&E NEWTON PL,,36.17408,-95.986728,,,,
5629,GrnwOkP,N GREENWOOD AVE&E OKLAHOMA PL,1435 N GREENWOOD AVE & E OKLAHOMA PL,36.176267,-95.986727,,,,
5630,GrnwOkSt,N GREENWOOD AVE&E OKLAHOMA ST,1370 N GREENWOOD AVE & E OKLAHOMA ST,36.174594,-95.98689,,,,
5631,GrnwPine,N GREENWOOD AVE&E PINE ST,1472 N GREENWOOD AVE & E PINE ST,36.176624,-95.986901,,,,
5632,GrnwPine,PINE & GREENWOOD,1501 N GREENWOOD AVE & E PINE ST,36.177067,-95.986735,,,,
5633,GrnwGrnw,N GREENWOOD AVE&OSU,391 N GREENWOOD AVE & N GREENWOOD AVE/E JOHN HOPE FRANKLIN BLVD,36.164211,-95.987085,,,,
5634,GrnwGrnw,N GREENWOOD AVE&OSU,388 N GREENWOOD AVE & N GREENWOOD AVE/E JOHN HOPE FRANKLIN BLVD,36.164034,-95.987074,,,,
5635,OkStKeno,E OKLAHOMA ST&N KENOSHA AVE,,36.175102,-95.980941,,,,
5636,MaBAElg,N MAIN ST&W ELGIN ST,368 N MAIN ST & W ELGIN ST,36.055062,-95.790907,,,,
5637,MaBAMas,S MAIN ST&E MASON DR,1356 S MAIN ST & E MASON DR,36.040038,-95.790936,,,,
5638,MaBAKeBA,N MAIN ST&W KENOSHA ST,872 N MAIN ST & W KENOSHA ST/E 71ST ST S,36.060491,-95.790873,,,,
5639,MaBARich,S MAIN ST&E RICHMOND ST,,36.036753,-95.790934,,,,
5640,MaBADtBA,N MAIN ST&W DETROIT ST,284 N MAIN ST & W DETROIT ST,36.054335,-95.790905,,,,
5641,MaBAHous,S MAIN ST&W HOUSTON ST/E 81ST ST S,752 S MAIN ST & W HOUSTON ST/E 81ST ST S,36.045888,-95.790953,,,,
5642,MaBAMphs,S MAIN ST&W MEMPHIS ST,1136 S MAIN ST & W MEMPHIS ST,36.041422,-95.790932,,,,
5643,MaBAPitP,S MAIN ST&W PITTSBURG PL,1612 S MAIN ST & W PITTSBURG PL,36.038531,-95.790945,,,,
5644,MaBAUrba,S MAIN ST&W URBANA ST,1808 S MAIN ST & W URBANA ST,36.033945,-95.790931,,,,
5645,MaBARich,S MAIN ST&E RICHMOND ST,,36.034783,-95.79093,,,,
5646,MaBAFree,N MAIN ST&W FREEPORT ST,486 N MAIN ST & W FREEPORT ST,36.056334,-95.790882,,,,
5647,PitAdm,N PITTSBURG AVE&E ADMIRAL PL,,36.160544,-95.931525,,,,
5648,QuanEasP,N QUANAH AVE&W EASTON PL,504 N QUANAH AVE & W EASTON PL (WAS S EASTON DR),36.159083,-96.007127,,,,
5649,QuanCamr,N QUANAH AVE&W CAMERON ST,122 N QUANAH AVE & W CAMERON ST,36.155091,-96.006659,,,,
5650,QuanArch,N QUANAH AVE&W ARCHER ST,131 N QUANAH AVE & W ARCHER ST,36.155229,-96.006531,,,,
5651,SherMarP,N SHERIDAN RD&E MARSHALL PL,1208 N SHERIDAN RD & E MARSHALL PL,36.171991,-95.904638,,,,
5652,SherEaSt,N SHERIDAN RD&E EASTON ST,601 N SHERIDAN RD & E EASTON ST,36.164544,-95.904473,,,,
5653,SherIndp,N SHERIDAN RD&E INDEPENDANCE ST,823 N SHERIDAN RD & E INDEPENDANCE ST,36.166748,-95.904475,,,,
5654,SherIndp,N SHERIDAN RD&E INDEPENDENCE ST,782 N SHERIDAN RD & E INDEPENDENCE ST,36.165988,-95.904654,,,,
5655,SherKngP,N SHERIDAN RD&E KING PL,1041 N SHERIDAN RD & E KING PL,36.169043,-95.904484,,,,
5656,SherLatP,N SHERIDAN RD&E LATIMER PL,1104 N SHERIDAN RD & E LATIMER PL,36.170336,-95.904651,,,,
5657,SherMrsh,N SHERIDAN RD&E MARSHALL ST,1203 N SHERIDAN RD & E MARSHALL ST,36.171627,-95.904496,,,,
5658,SherNwtP,N SHERIDAN RD&E NEWTON PL,1334 N SHERIDAN RD & E NEWTON PL,36.174193,-95.904658,,,,
5659,SherOkSt,N SHERIDAN RD&E OKLAHOMA ST,1425 N SHERIDAN RD & E OKLAHOMA ST,36.175395,-95.90449,,,,
5660,SherQuee,N SHERIDAN RD&E QUEEN ST,1584 N SHERIDAN RD & E QUEEN ST,36.178703,-95.904679,,,,
5661,SherRead,N SHERIDAN RD&E READING ST,1713 N SHERIDAN RD & E READING ST,36.180088,-95.904502,,,,
5662,SherRead,N SHERIDAN RD&E READING ST,1658 N SHERIDAN RD & E READING ST,36.179459,-95.904662,,,,
5663,SherTecm,N SHERIDAN RD&E TECUMSAH ST,1907 N SHERIDAN RD & E TECUMSAH ST,36.182241,-95.904499,,,,
5664,SherTecm,N SHERIDAN RD&E TECUMSEH ST,1870 N SHERIDAN RD & E TECUMSEH ST,36.181874,-95.904685,,,,
5665,SherVirg,N SHERIDAN RD&E VIRGIN ST,1990 N SHERIDAN RD & E VIRGIN ST,36.184142,-95.904687,,,,
5666,SherPine,N SHERIDAN RD&E PINE ST,1482 N SHERIDAN RD & E PINE ST,36.176645,-95.904664,,,,
5667,XanPApch,N XANTHUS AVE&E APACHE ST,2578 N XANTHUS AVE & E APACHE ST,36.191205,-95.964386,,,,
5668,XanPWdrC,N XANTHUS AVE&E WOODROW CT,2242 N XANTHUS AVE & E WOODROW CT,36.186472,-95.963586,,,,
5669,XanPYng,N XANTHUS AVE&E YOUNG ST,2376 N XANTHUS AVE & E YOUNG ST,36.188211,-95.963512,,,,
5672,BassAlby,BASS PRO SHOP,101 E BASS PRO DR & W ALBANY ST,36.071069,-95.792038,,,,
5674,HL CRSTS,S 101ST E AVE&E 81ST ST S,8801 S 101ST E AVE & E 81ST ST S/UNNAMED ST,36.036304,-95.864723,,,,
5675,129a5st,S 129TH E AVE&E 5TH ST,195 S 129TH E AVE & E 5TH ST/E 4TH ST,36.156279,-95.833184,,,,
5676,129a51st,S 129TH E AVE&E 51ST ST S,5051 S 129TH E AVE & E 51ST ST S/W OMAHA ST,36.091791,-95.833078,,,,
5677,129a7st,S 129TH E AVE&E 7TH ST S,591 S 129TH E AVE & E 7TH ST S,36.152565,-95.833209,,,,
5678,129aStaF,S 129TH E AVE&STATE FARM BLVD,4885 S 129TH E AVE & STATE FARM BLVD,36.094117,-95.833083,,,,
5679,137a21st,S 137TH E AVE&E 21ST ST S,2220 S 137TH E AVE & E 21ST ST S,36.132716,-95.82353,,,,
5680,137aRing,S 137TH E AVE&E 24TH ST S,2382 S 137TH E AVE & RING RD,36.129153,-95.82367,,,,
5681,137a30Pl,S 137TH E AVE&E 30TH PL S,3130 S 137TH E AVE & E 30TH PL S (WAS E 31ST ST),36.119134,-95.823853,,,,
5684,65av8st,CHARLES PAGE BLVD & 65TH W AVE,806 S 65TH W AVE & W 8TH ST S,36.147026,-96.06529,,,,
5685,AspnWash,S ASPEN AVE&E 91ST ST,2310 S ASPEN AVE/S 145TH E AVE & E 91ST ST S/W WASHINGTON ST,36.030448,-95.815496,,,,
5686,AspnAust,S ASPEN AVE&W AUSTIN,4358 S ASPEN AVE/S 145TH E AVE & W AUSTIN ST,36.007619,-95.815347,,,,
5687,AspnBdWy,S ASPEN AVE&W BROADWAY,S ASPEN AVE/S 145TH E AVE & W BROADWAY AVE,36.052575,-95.815201,,,,
5688,AspnCanP,S ASPEN AVE&W CANTON,S ASPEN AVE/S 145TH E AVE & W CANTON PL,36.024763,-95.815443,,,,
5689,AspnDlmr,S ASPEN AVE&W DELMAR,S ASPEN AVE/S 145TH E AVE & W DELMAR ST,36.02396,-95.815196,,,,
5690,AspnFtW,S ASPEN AVE&W FT WORT,595 S ASPEN AVE/S 145TH E AVE & W FT WORTH ST,36.049244,-95.815215,,,,
5691,AspnGary,S ASPEN AVE/S 145TH E AVE&W GARY ST,2891 S ASPEN AVE/S 145TH E AVE & W GARY ST,36.021586,-95.815183,,,,
5692,AspnGary,S ASPEN AVE&W GARY ST,S ASPEN AVE/S 145TH E AVE & W GARY ST,36.021109,-95.815428,,,,
5693,AspnLoBA,S ASPEN AVE&W LOUISVILLE,1121 S ASPEN AVE/S 145TH E AVE & W LOUISVILLE ST,36.0439,-95.815218,,,,
5694,AspnLoBA,S ASPEN AVE&W LOUISVILLE,1434 S ASPEN AVE/S 145TH E AVE & W LOUISVILLE ST,36.042289,-95.815485,,,,
5695,AspnORst,S ASPEN AVE&W OAK RID,S ASPEN AVE/S 145TH E AVE & W OAK RIDGE ST,36.039527,-95.815465,,,,
5696,AspnQtco,S ASPEN AVE&W QUANTICO,3783 S ASPEN AVE/S 145TH E AVE & W QUANTICO ST,36.014581,-95.815221,,,,
5697,AspnQnBA,S ASPEN AVE&W QUINCY,S ASPEN AVE/S 145TH E AVE & W QUINCY ST,36.036999,-95.815461,,,,
5698,AspnToBA,S ASPEN AVE&W TOLEDO,S ASPEN AVE/S 145TH E AVE & W TOLEDO ST,36.035565,-95.81521,,,,
5699,AspnToBA,S ASPEN AVE/S 145TH E AVE&W TOLEDO,1760 S ASPEN AVE/S 145TH E AVE & W TOLEDO ST,36.03427,-95.815466,,,,
5700,AspnQtco,S ASPEN AVE&W QUANTICO,4046 S ASPEN AVE/S 145TH E AVE & W QUANTICO ST,36.012961,-95.815341,,,,
5701,AspnWash,S ASPEN AVE&W WASHINGTON,1859 S ASPEN AVE/S 145TH E AVE & W WASHINGTON ST/E 91ST ST S,36.032659,-95.815176,,,,
5702,AspnHous,S ASPEN AVE/S 145TH E AVE&W HOUSTON,691 S ASPEN AVE/S 145TH E AVE & W HOUSTON ST/E 81ST ST S,36.046614,-95.815192,,,,
5703,AspnHous,S ASPEN AVE&W HOUSTON,838 S ASPEN AVE/S 145TH E AVE & W HOUSTON ST/E 81ST ST S,36.045881,-95.815518,,,,
5704,AspnNOrl,S ASPEN AVE&W NEW ORLEANS,3477 S ASPEN AVE/S 145TH E AVE & W NEW ORLEANS ST/E 101ST ST S,36.01761,-95.815179,,,,
5705,AspnAust,S ASPEN AVE&W AUSTIN,4359 S ASPEN AVE/S 145TH E AVE & W AUSTIN ST,36.007622,-95.815223,,,,
5706,AspnVick,S ASPEN AVE&W VICKSBURG,4261 S ASPEN AVE/S 145TH E AVE & W VICKSBURG PL,36.009786,-95.815221,,,,
5707,Bld21st,S BOULDER AVE&W 21ST ST S,1801 S BOULDER AVE & W 21ST ST S,36.134424,-95.988855,,,,
5708,Dnvr11st,S DENVER AVE&W 11TH ST S,1150 S DENVER AVE & W 11TH ST S,36.145389,-95.992409,,,,
5709,Dnvr12st,S DENVER AVE&W 12TH ST S,1181 S DENVER AVE & W 12TH ST S,36.145136,-95.992207,,,,
5710,Dnvr13st,S DENVER AVE&W 13TH ST S,1314 S DENVER AVE & W 13TH ST S,36.143396,-95.992384,,,,
5711,Dnvr14st,S DENVER AVE&W 14TH ST S,1351 S DENVER AVE & W 14TH ST S,36.142926,-95.992217,,,,
5712,Dnvr15st,S DENVER AVE&W 15TH ST S,1471 S DENVER AVE & W 15TH ST S,36.140933,-95.992323,,,,
5713,ElBAQtco,S ELM PL/S 161ST E AVE&W QUANTICO S,3787 S ELM PL/S 161ST E AVE & W QUANTICO ST REASORS BROKEN ARROW,36.015358,-95.79728,,,,
5714,ElBAAtSt,S ELM PL&W ATLANTA ST,2004 S ELM PL/S 161ST E AVE & W ATLANTA ST/E 93RD ST S,36.02972,-95.797612,,,,
5715,ElBAAtlC,S ELM PL&W ATLANTA CT,2005 S ELM PL/S 161ST E AVE & W ATLANTA CT,36.029704,-95.797378,,,,
5716,ElBAFred,S ELM PL/S 161ST E AVE&W FREDRICKSB,7815 S ELM PL/S 161ST E AVE & W FREDRICKSBURG ST,35.976984,-95.797247,,,,
5717,ElBAIthc,S ELM PL&W ITHACA ST,2917 S ELM PL/S 161ST E AVE & W ITHICA ST,36.022082,-95.797327,,,,
5718,ElBAFuls,S ELM PL&W FULTON ST,2970 S ELM PL/S 161ST E AVE & W FULTON ST,36.021664,-95.797578,,,,
5719,ElBANOrl,S ELM PL&W NEW ORLEANS,3351 S ELM PL/S 161ST E AVE & W NEW ORLEANS ST/E 101ST ST S,36.018266,-95.797316,,,,
5720,ElBAVaBA,S ELM PL&W VANDEVER B,2510 S ELM PL/S 161ST E AVE & W VANDEVER BLVD,36.026427,-95.797583,,,,
5721,ElBAEdge,S ELM PL&W EDGEWATER,2617 S ELM PL/S 161ST E AVE & W EDGEWATER ST,36.02617,-95.797341,,,,
5723,ElBAWash,S ELM PL&W WASHINGTON,1911 S ELM PL/S 161ST E AVE & W WASHINGTON ST/ E 91ST ST S,36.031643,-95.797614,,,,
5724,ElBABoBA,S ELM PL&W BOSTON ST/,2122 S ELM PL/S 161ST E AVE & W BOSTON ST/E 95TH ST S,36.028133,-95.79761,,,,
5725,Gntt31st,S GARNETT RD&E 31ST ST S,3041 S GARNETT RD & E 31ST ST S,36.119795,-95.850989,,,,
5726,Gntt34st,S GARNETT RD&E 34TH ST S,,36.114045,-95.850983,,,,
5727,Gntt39st,S GARNETT RD&E 39TH PL S,3921 S GARNETT RD & E 39TH PL S,36.107276,-95.850966,,,,
5728,Gntt41st,S GARNETT RD&E 41ST ST S,4027 S GARNETT RD & E 41ST ST S,36.105083,-95.850946,,,,
5729,Gntt43st,S GARNETT RD&E 43RD ST S,4414 S GARNETT RD & E 43RD ST S,36.100137,-95.851194,,,,
5730,Gntt11st,S GARNETT RD&E 11TH ST S,1126 S GARNETT RD & E 11TH ST S,36.147344,-95.851259,,,,
5731,Gntt11st,S GARNETT RD&E 11TH ST S,1011 S GARNETT RD & E 11TH ST S,36.148902,-95.851023,,,,
5732,Gntt16st,S GARNETT RD&E 16TH ST S,1640 S GARNETT RD & E 16TH ST S,36.138805,-95.851238,,,,
5733,Gntt17Pl,S GARNETT RD&E 17TH PL S,1810 S GARNETT RD & E 17TH PL S/E 19TH ST S,36.135766,-95.851229,,,,
5734,Gntt21st,S GARNETT RD&E 21ST ST S,2110 S GARNETT RD & E 21ST ST S,36.133057,-95.851231,,,,
5735,Gntt22st,S GARNETT RD&E 22ND ST S,2121 S GARNETT RD & E 22ND ST S,36.131592,-95.850996,,,,
5736,Gntt23st,S GARNETT RD&E 23RD ST S,2304 S GARNETT RD & E 23RD ST S,36.130086,-95.851229,,,,
5737,Gntt23st,S GARNETT RD&E 23RD ST S,2305 S GARNETT RD & E 23RD ST S,36.130105,-95.850994,,,,
5738,Gntt26st,S GARNETT RD&E 26TH ST S,2638 S GARNETT RD & E 26TH ST S,36.126202,-95.85123,,,,
5739,Gntt26st,S GARNETT RD&E 26TH ST S,2587 S GARNETT RD & E 26TH ST S,36.126908,-95.850998,,,,
5740,Gntt29st,S GARNETT RD&E 29TH ST S,2840 S GARNETT RD & E 29TH ST S,36.12187,-95.851239,,,,
5741,Gntt29st,S GARNETT RD&E 29TH ST S,2827 S GARNETT RD & E 29TH ST S,36.121959,-95.851004,,,,
5742,Gntt31st,S GARNETT RD&E 31ST ST S,3156 S GARNETT RD & E 31ST ST S,36.118107,-95.851249,,,,
5743,Gntt34st,S GARNETT RD&E 34TH ST S,3446 S GARNETT RD & E 34TH ST S,36.112378,-95.851218,,,,
5744,Gntt3st,S GARNETT RD&E 3RD ST S,314 S GARNETT RD & E 3RD ST S,36.156482,-95.851267,,,,
5745,Gntt3st,S GARNETT RD&E 3RD ST S,201 S GARNETT RD & E 3RD ST S,36.156843,-95.851102,,,,
5746,Gntt41st,S GARNETT RD&E 41ST ST S,4120 S GARNETT RD & E 41ST ST S,36.103852,-95.851205,,,,
5747,Gntt43st,S GARNETT RD&E 43RD ST S,4220 S GARNETT RD & E 43RD ST S,36.101545,-95.851192,,,,
5748,Gntt7st,S GARNETT RD&E 7TH ST S,726 S GARNETT RD & E 7TH ST S,36.150932,-95.85123,,,,
5749,Gntt11st,S GARNETT RD&E 11TH ST S,709 S GARNETT RD & E 11TH ST S,36.151386,-95.851084,,,,
5750,GnttAdm,S GARNETT RD&E ADMIRAL PL,39 S GARNETT RD & E ADMIRAL PL,36.161128,-95.851135,,,,
5751,GnttIndp,S GARNETT RD&E INDEPENDENCE ST,S GARNETT RD & E INDEPENDENCE ST/E CAMERON ST,36.165494,-95.851269,,,,
5752,GnttIndp,S GARNETT RD&E INDEPENDANCE ST,1020 S GARNETT RD & E INDEPENDANCE ST,36.16775,-95.851268,,,,
5753,GnttSkDr,S GARNETT RD&E SKELLY DR,1284 S GARNETT RD & E SKELLY DR,36.143918,-95.85126,,,,
5754,GnttSkDr,S GARNETT RD&E SKELLY DR,1191 S GARNETT RD & E SKELLY DR,36.146302,-95.850978,,,,
5755,GnttCamr,S GARNETT RD&E CAMERON ST,1011 S GARNETT RD & E CAMERON ST,36.167562,-95.851066,,,,
5756,Gntt21st,E 21ST ST S& GARNETT,2021 S GARNETT RD & E 21ST ST S,36.133842,-95.850988,,,,
5757,GiRdAbvd,CHARLES PAGE BLVD &S 25TH W AVE,280 S GILCREASE MUSEUM RD/S 25TH W AVE & W ADMIRAL BLVD,36.153256,-96.020452,,,,
5759,Harv32st,S HARVARD AVE&E 32ND ST S,3165 S HARVARD AVE & E 32ND ST S,36.117625,-95.940184,,,,
5760,Harv33st,S HARVARD AVE&E 33RD ST S,3260 S HARVARD AVE & E 33RD ST S,36.115528,-95.940353,,,,
5761,Harv33st,S HARVARD AVE&E 33RD ST S,3281 S HARVARD AVE & E 33RD ST S,36.115371,-95.940168,,,,
5762,Harv35st,S HARVARD AVE&E 35TH ST S,3467 S HARVARD AVE & E 35TH ST S,36.113605,-95.940159,,,,
5763,Harv36st,S HARVARD AVE&E 36TH ST S,3610 S HARVARD AVE & E 36TH ST S,36.111309,-95.940307,,,,
5764,Harv36st,S HARVARD AVE&E 36TH ST S,3589 S HARVARD AVE & E 36TH ST S,36.111765,-95.94014,,,,
5765,Harv37st,S HARVARD AVE&E 37TH ST S,3685 S HARVARD AVE & E 37TH ST S,36.110049,-95.940156,,,,
5766,Harv38st,S HARVARD AVE&E 38TH ST S,3770 S HARVARD AVE & E 38TH ST S,36.108097,-95.940308,,,,
5767,Harv38st,S HARVARD AVE&E 38TH ST S,3785 S HARVARD AVE & E 38TH ST S,36.108045,-95.940131,,,,
5768,Harv39st,S HARVARD AVE&E 39TH ST S,3873 S HARVARD AVE & E 39TH ST S,36.1069,-95.940133,,,,
5769,Harv41st,E 41ST ST S&S HARVARD AVE,4083 S HARVARD AVE & E 41ST ST S,36.104456,-95.940056,,,,
5770,Harv41st,S HARVARD AVE&E 41ST ST S,4023 S HARVARD AVE & E 41ST ST S,36.105173,-95.940081,,,,
5771,HudGran,S HUDSON AVE&S GRANITE AVE,3857 S HUDSON AVE & S GRANITE AVE,36.107611,-95.91321,,,,
5772,MaBAMas,S MAIN ST&E MASON DR,1163 S MAIN ST & E MASON DR,36.041313,-95.790688,,,,
5773,MaBARich,S MAIN ST&E RICHMOND ST,1619 S MAIN ST & E RICHMOND ST,36.038465,-95.790719,,,,
5774,MaBAHous,S MAIN ST&W HOUSTON ST,607 S MAIN ST & W HOUSTON ST/E 81ST ST S,36.04731,-95.790685,,,,
5775,MaBAMphs,S MAIN ST&W MEMPHIS ST,1102 S MAIN ST & W MEMPHIS ST,36.04211,-95.790922,,,,
5776,MaBAWash,S MAIN ST&W WASHINGTON ST,1861 S MAIN ST & W WASHINGTON ST/E 91ST ST S,36.03282,-95.790708,,,,
5777,Mem25Pl,S MEMORIAL DR&E 25TH PL S,2477 S MEMORIAL DR & E 25TH PL S,36.12734,-95.886534,,,,
5778,Mem37st,S MEMORIAL DR&E 37TH ST S,3685 S MEMORIAL DR & E 37TH ST S,36.110542,-95.886446,,,,
5779,Mem17st,S MEMORIAL DR&E 17TH ST S,1750 S MEMORIAL DR & E 17TH ST S,36.136649,-95.886782,,,,
5780,Mem11st,S MEMORIAL DR&E 11TH ST S,1053 S MEMORIAL DR & E 11TH ST S,36.148404,-95.886559,,,,
5781,Mem12st,S MEMORIAL DR&E 12TH ST S,1187 S MEMORIAL DR & E 12TH ST S,36.146395,-95.886538,,,,
5782,Mem14st,S MEMORIAL DR&E 14TH ST S,1287 S MEMORIAL DR & E 14TH ST S,36.142866,-95.886538,,,,
5783,Mem14st,S MEMORIAL DR&E 14TH ST S,1416 S MEMORIAL DR & E 14TH ST S,36.142227,-95.886784,,,,
5784,Mem15st,S MEMORIAL DR&E 15TH ST S,1475 S MEMORIAL DR & E 15TH ST S,36.141096,-95.886535,,,,
5786,Mem16st,S MEMORIAL DR&E 16TH ST S,1577 S MEMORIAL DR & E 16TH ST S,36.139198,-95.886543,,,,
5787,Mem16st,S MEMORIAL DR&E 16TH ST S,1608 S MEMORIAL DR & E 16TH ST S,36.138676,-95.886777,,,,
5788,Mem17st,S MEMORIAL DR&E 17TH ST S,1685 S MEMORIAL DR & E 17TH ST S,36.137378,-95.886546,,,,
5789,Mem21st,S MEMORIAL DR&E 21ST ST S,1921 S MEMORIAL DR & E 21ST ST S,36.13494,-95.886554,,,,
5790,Mem19st,S MEMORIAL DR&E 19TH ST S,1914 S MEMORIAL DR & E 19TH ST S,36.135032,-95.886787,,,,
5791,Mem21st,S MEMORIAL DR&E 21ST ST S,2136 S MEMORIAL DR & E 21ST ST S,36.132783,-95.886807,,,,
5792,Mem22st,S MEMORIAL DR&E 22ND ST S,2241 S MEMORIAL DR & E 22ND ST S,36.131034,-95.886802,,,,
5793,Mem23st,S MEMORIAL DR&E 23RD ST S,2275 S MEMORIAL DR & E 23RD ST S,36.130608,-95.88656,,,,
5794,Mem24st,S MEMORIAL DR&E 24TH ST S,2402 S MEMORIAL DR & E 24TH ST S,36.128622,-95.886775,,,,
5795,Mem25Pl,S MEMORIAL DR&E 25TH PL S,2524 S MEMORIAL DR & E 25TH PL S,36.126747,-95.886764,,,,
5796,Mem27st,S MEMORIAL DR&E 27TH ST S,2671 S MEMORIAL DR & E 27TH ST S,36.125027,-95.886512,,,,
5797,Mem27st,S MEMORIAL DR&E 27TH ST S,2708 S MEMORIAL DR & E 27TH ST S,36.124376,-95.886748,,,,
5799,Mem31st,S MEMORIAL DR&E 31ST ST S,3118 S MEMORIAL DR & E 31ST ST S,36.118183,-95.886721,,,,
5800,Mem32st,S MEMORIAL DR&E 32ND ST S,,36.116694,-95.88647,,,,
5801,Mem32st,S MEMORIAL DR&E 32ND ST S,,36.116143,-95.886729,,,,
5802,Mem33st,S MEMORIAL DR&E 33RD ST S,3338 S MEMORIAL DR & E 33RD ST S,36.114142,-95.886727,,,,
5803,Mem35st,S MEMORIAL DR&E 35TH ST S,3624 S MEMORIAL DR & E 35TH ST S,36.11164,-95.886715,,,,
5804,Mem4Pl,S MEMORIAL DR&E 4TH PL S,275 S MEMORIAL DR & E 4TH PL S,36.157416,-95.886583,,,,
5805,Mem41st,S MEMORIAL DR&E 41ST ST S,4055 S MEMORIAL DR & E 41ST ST S,36.105128,-95.886454,,,,
5806,Mem40st,S MEMORIAL DR&E 40TH ST S,4024 S MEMORIAL DR & E 40TH ST S,36.105559,-95.886695,,,,
5807,Mem4Pl,S MEMORIAL DR&E 4TH PL S,432 S MEMORIAL DR & E 4TH PL S,36.154817,-95.886821,,,,
5808,Mem5Pl,S MEMORIAL DR&E 5TH PL S,489 S MEMORIAL DR & E 5TH PL S,36.153638,-95.886596,,,,
5809,Mem7st,S MEMORIAL DR&E 7TH ST S,,36.151885,-95.886595,,,,
5811,Mem9st,S MEMORIAL DR&E 9TH ST S,783 S MEMORIAL DR & E 9TH ST S,36.15005,-95.886586,,,,
5812,SherAdm,N SHERIDAN RD&E ADMIRAL PL,29 N SHERIDAN RD & E ADMIRAL PL,36.161242,-95.904489,,,,
5814,MemSkDr,S MEMORIAL DR&E SKELLY DR,,36.120483,-95.886417,,,,
5815,Mem11st,S MEMORIAL DR&E 11TH ST S,1118 S MEMORIAL DR & E 11TH ST S,36.147582,-95.886803,,,,
5818,Mngo42st,S MINGO RD&E 42ND ST S,4185 S MINGO RD & E 42ND ST S,36.102677,-95.868544,,,,
5819,Mngo44Pl,S MINGO RD&E 44TH PL S,4353 S MINGO RD & E 44TH PL S,36.099144,-95.868542,,,,
5820,Mngo45Pl,S MINGO RD&E 45TH PL S,4432 S MINGO RD & E 45TH PL S,36.097616,-95.868761,,,,
5821,Mngo47Pl,S MINGO RD&E 47TH PL S,4641 S MINGO RD & E 47TH PL S,36.095541,-95.868522,,,,
5822,Peo31st,S PEORIA AVE&E 31ST ST S,3106 S PEORIA AVE & E 31ST ST S,36.118495,-95.97583,,,,
5823,Peo31Pl,S PEORIA AVE&E 31ST PL S,3139 S PEORIA AVE & E 31ST PL S,36.117647,-95.975649,,,,
5824,Peo32st,S PEORIA AVE&E 32ND ST S,3171 S PEORIA AVE & E 32ND ST S,36.116704,-95.975609,,,,
5825,Peo32st,S PEORIA AVE&E 32ND ST S,3182 S PEORIA AVE & E 32ND ST S,36.116464,-95.975775,,,,
5826,Peo34st,S PEORIA AVE&E 34TH ST S,3361 S PEORIA AVE & E 34TH ST S,36.114486,-95.975416,,,,
5827,Peo33st,S PEORIA AVE&E 33RD ST S,3261 S PEORIA AVE & E 33RD ST S,36.115364,-95.975587,,,,
5828,Peo36st,S PEORIA AVE&E 36TH ST S,3565 S PEORIA AVE & E 36TH ST S,36.11206,-95.975589,,,,
5829,Peo36st,S PEORIA AVE&E 36TH ST S,3608 S PEORIA AVE & E 36TH ST S,36.111212,-95.975804,,,,
5830,Peo37st,S PEORIA AVE&E 37TH ST S,3677 S PEORIA AVE & E 37TH ST S,36.110027,-95.975622,,,,
5831,Peo37st,S PEORIA AVE&E 37TH ST S,3710 S PEORIA AVE & E 37TH ST S,36.10939,-95.975821,,,,
5832,Peo38st,S PEORIA AVE&E 38TH ST S,3806 S PEORIA AVE & E 38TH ST S,36.107744,-95.97582,,,,
5833,Peo39st,S PEORIA AVE&E 39TH ST S,3837 S PEORIA AVE & E 39TH ST S,36.106923,-95.975614,,,,
5834,Peo39st,S PEORIA AVE&E 39TH ST S,3910 S PEORIA AVE & E 39TH ST S,36.1059,-95.975827,,,,
5835,Peo41st,E 41ST ST S&S PEORIA AVE,3959 S PEORIA AVE & E 41ST ST S,36.105057,-95.975614,,,,
5836,Sher17st,S SHERIDAN RD&E 17TH ST S,1579 S SHERIDAN RD & E 17TH ST S,36.138843,-95.904492,,,,
5837,Sher17st,S SHERIDAN RD&E 17TH ST S,1734 S SHERIDAN RD & E 17TH ST S,36.137895,-95.904661,,,,
5838,Sher19st,S SHERIDAN RD&E 19TH ST S,1885 S SHERIDAN RD & E 19TH ST S,36.136092,-95.904491,,,,
5839,Sher19st,S SHERIDAN RD&E 19TH ST S,1906 S SHERIDAN RD & E 19TH ST S,36.13587,-95.904658,,,,
5840,Sher21Pl,S SHERIDAN RD&E 21ST PL S,2139 S SHERIDAN RD & E 21ST PL S,36.131956,-95.904501,,,,
5841,Sher21Pl,S SHERIDAN RD&E 21ST PL S,2158 S SHERIDAN RD & E 21ST PL S,36.131342,-95.904654,,,,
5842,Sher21st,S SHERIDAN RD&E 21ST ST S,2069 S SHERIDAN RD & E 21ST ST S,36.133796,-95.90448,,,,
5844,Sher23st,S SHERIDAN RD&E 23RD ST S,2195 S SHERIDAN RD & E 23RD ST S,36.130119,-95.904493,,,,
5845,Sher24st,S SHERIDAN RD&E 24TH ST S,2361 S SHERIDAN RD & E 24TH ST S,36.129293,-95.904494,,,,
5846,Sher25Pl,S SHERIDAN RD&E 25TH PL S,2461 S SHERIDAN RD & E 25TH PL S,36.127483,-95.904498,,,,
5847,Sher26Ct,S SHERIDAN RD&E 26TH CT S,2599 S SHERIDAN RD & E 26TH CT S,36.125199,-95.904494,,,,
5848,Sher28st,S SHERIDAN RD&E 28TH ST S,2821 S SHERIDAN RD & E 28TH ST S,36.122619,-95.904505,,,,
5849,Sher28st,S SHERIDAN RD&E 28TH ST S,2922 S SHERIDAN RD & E 28TH ST S,36.121896,-95.904672,,,,
5850,Sher30st,S SHERIDAN RD&E 30TH ST S,2971 S SHERIDAN RD & E 30TH ST S,36.121423,-95.904476,,,,
5851,Sher31st,S SHERIDAN RD&E 31ST ST S,3069 S SHERIDAN RD & E 31ST ST S,36.11963,-95.904437,,,,
5852,Sher41st,E 41ST ST S&S SHERIDAN RD,4081 S SHERIDAN RD & E 41ST ST S,36.104804,-95.904396,,,,
5853,Sher40st,S SHERIDAN RD&E 40TH ST S,4006 S SHERIDAN RD & E 40TH ST S,36.106734,-95.90465,,,,
5854,38stMpwd,E 38TH ST S&S MAPLEWOOD AVE,6266 E 38TH ST S & S MAPLEWOOD AVE,36.109081,-95.905562,,,,
5855,Utic11st,S UTICA AVE&E 11TH ST S,1051 S UTICA AVE & E 11TH ST S,36.148314,-95.96702,,,,
5856,Utic12st,S UTICA AVE&E 12TH ST S,1183 S UTICA AVE & E 12TH ST S,36.146219,-95.967189,,,,
5857,Utic12st,S UTICA AVE&E 12TH ST S,1234 S UTICA AVE & E 12TH ST S,36.145453,-95.967205,,,,
5858,Utic13st,S UTICA AVE&E 13TH ST S,1299 S UTICA AVE & E 13TH ST S,36.144561,-95.967024,,,,
5859,Utic14st,S UTICA AVE&E 14TH ST S,1406 S UTICA AVE & E 14TH ST S,36.142126,-95.967285,,,,
5860,Utic15st,S UTICA AVE&E 15TH ST S,1463 S UTICA AVE & E 15TH ST S,36.141045,-95.967047,,,,
5861,Utic16st,S UTICA AVE&E 16TH ST S,1587 S UTICA AVE & E 16TH ST S,36.139484,-95.967025,,,,
5862,Utic19st,S UTICA AVE&E 19TH ST S,1789 S UTICA AVE & E 19TH ST S,36.135381,-95.967169,,,,
5863,Utic22st,S UTICA AVE&E 21ST ST S,2133 S UTICA AVE & E 22ND ST S,36.133201,-95.967045,,,,
5864,Utic19st,S UTICA AVE&S 21ST ST,1998 S UTICA AVE & E 19TH ST S,36.133397,-95.967378,,,,
5865,Utic22Pl,S UTICA AVE&E 22ND PL S,2241 S UTICA AVE & E 22ND PL S,36.130811,-95.967071,,,,
5866,UticTroo,S UTICA AVE&S TROOST AVE,,36.132643,-95.967241,,,,
5867,UticVict,S UTICA AVE&S VICTOR AVE,2697 S UTICA AVE & S VICTOR AVE/S TERWILLEGER BLVD/E 27TH ST S,36.12536,-95.967124,,,,
5868,Utic29st,S UTICA AVE&E 29TH ST S,2883 S UTICA AVE & E 29TH ST S,36.1218,-95.966758,,,,
5869,Utic30Pl,S UTICA AVE&E 30TH PL S,3021 S UTICA AVE & E 30TH PL S,36.119977,-95.96758,,,,
5870,Utic6st,S UTICA AVE&E 6TH ST S,640 S UTICA AVE & E 6TH ST S,36.151887,-95.967221,,,,
5871,Utic8st,S UTICA AVE&E 8TH ST S,906 S UTICA AVE & E 8TH ST S,36.149393,-95.967132,,,,
5872,UticTroo,S UTICA AVE&S TROOST AVE,2489 S UTICA AVE & S TROOST AVE,36.128393,-95.967047,,,,
5873,UticSwan,S UTICA AVE&SWAN DR,,36.136669,-95.967151,,,,
5874,UticSwan,S UTICA AVE&SWAN DR,,36.13645,-95.967316,,,,
5877,Ya36st,S YALE AVE&E 36TH ST S,3614 S YALE AVE & E 36TH ST S,36.111346,-95.922502,,,,
5878,Ya38Pl,S YALE AVE&E 38TH PL S,,36.107781,-95.922231,,,,
5879,Ya41st,S YALE AVE&E 41ST ST S,4033 S YALE AVE & E 41ST ST S,36.10513,-95.922231,,,,
5880,Ya41st,S YALE AVE&E 41ST ST S,4112 S YALE AVE & E 41ST ST S,36.104224,-95.922464,,,,
5882,81st101a,E 81ST ST S&S 101ST E AVE,,36.045604,-95.863329,,,,
5883,TCCNE FD,N HARVARD AVE&E APACHE ST,,36.194036,-95.938654,,,,
5884,HickIngw,TREETOP APARTMENTS,5001 S HICKORY AVE & W INGLEWOOD ST,36.000221,-95.800915,,,,
5888,ArptArDr,TULSA INTERNATIONAL AIRPORT,UNNAMED ST TULSA INTERNATIONAL AIRPORT TERMINAL & AIRPORT DR,36.190034,-95.890087,,,,
5890,15Bu,15TH & BOULDER,131 W 15TH ST S & S BOULDER AVE,36.140684,-95.988809,,,,
5891,15stBld,W 15TH ST S&S BOULDER AVE,80 W 15TH ST S & S BOULDER AVE,36.140555,-95.98825,,,,
5892,15stCars,W 15TH ST S&S CARSON AVE,225 W 15TH ST S & S CARSON AVE,36.140688,-95.990868,,,,
5893,15stDnvr,S DENVER AVE&W 15TH ST S,,36.140556,-95.991728,,,,
5894,21stMa,21ST ST S&S MAIN ST,5 W 21ST ST S & S MAIN ST,36.133427,-95.987544,,,,
5895,2stPlaz,E 2ND ST&PLAZA CT,361 E 2ND ST & PLAZA CT,36.13853,-96.104201,,,,
5897,ArchBld,W ARCHER ST&N BOULDER AVE,127 W ARCHER ST & N BOULDER AVE,36.156892,-95.994704,,,,
5898,ArchBld,W ARCHER ST&N BOULDER AVE,,36.156997,-95.993836,,,,
5899,ArchChey,W ARCHER ST&N CHEYANNE AVE,223 W ARCHER ST & N CHEYANNE AVE,36.15646,-95.99577,,,,
5900,ArchDnvr,W ARCHER ST&N DENVER AVE,270 W ARCHER ST & N DENVER AVE,36.156175,-95.996312,,,,
5901,EdUnio,W EDISON ST&N UNION PL,,36.16138,-96.011916,,,,
5902,EdVncu,W EDISON ST&N VANCOUVER AVE,,36.161235,-96.012397,,,,
5903,EdWaco,W EDISON ST&N WACO AVE,,36.161361,-96.014114,,,,
5904,Ed23av,W EDISON ST & N 23RD W AVE,2214 W EDISON ST & N 23RD W AVE (WAS S),36.161197,-96.017526,,,,
5905,EdXeno,W EDISON ST&N 23RD W AVE,2247 W EDISON ST & N XENOPHON AVE,36.161312,-96.017846,,,,
5906,JaspPark,W JASPER ST&S PARK AVE,15529 W JASPER ST/E 131ST ST S & S PARK AVE,35.973885,-95.80248,,,,
5907,JaspElBA,W JASPER ST&S ELM PL/S,15791 W JASPER ST/E 131ST ST S & S ELM PL/S 161ST E AVE,35.973884,-95.800151,,,,
5908,JaspShad,W JASPER ST&S SHADOWOOD,14799 W JASPER ST/E 131ST ST S & S SHADOWOOD AVE/PECAN CIRCLE,35.973884,-95.8113,,,,
5909,Jasp152a,W JASPER ST&S 152ND E,15113 W JASPER ST/E 131ST ST S & S 152ND E AVE,35.973901,-95.808727,,,,
5910,Jasp154a,W JASPER ST&S 154TH E,15375 W JASPER ST/E 131ST ST S & S 154TH E AVE,35.973886,-95.805128,,,,
5911,NOrlJuni,W NEW ORLEANS ST&S JUNIPER,805 W NEW ORLEANS ST/E 101ST ST S & S JUNIPER AVE,36.017299,-95.800349,,,,
5912,NOrlOak,W NEW ORLEANS ST&S OAK,W NEW ORLEANS ST/E 101ST ST S & S OAK AVE,36.017336,-95.808725,,,,
5913,NOrlAspn,W NEW ORLEANS ST&S ASPEN,2151 W NEW ORLEANS ST/E 101ST ST S & S ASPEN AVE/S 145TH E AVE,36.017266,-95.814744,,,,
5914,WashAsh,W WASHINGTON ST&S ASH PL,308 W WASHINGTON ST/E 91ST ST S & S ASH PL/S 165TH E AVE,36.031995,-95.793039,,,,
5915,WashDate,W WASHINGTON ST&S DATE,506 W WASHINGTON ST/E 91ST ST S & S DATE AVE,36.032007,-95.795915,,,,
5916,WashElBA,W WASHINGTON ST&S ELM PL,545 W WASHINGTON ST/E 91ST ST S & S ELM PL/ S 161ST E AVE,36.031816,-95.796616,,,,
5918,Peo30st,S PEORIA AVE&E 30TH ST S,3004 S PEORIA AVE & E 30TH ST S,36.120474,-95.975781,,,,
5919,Harv17st,S HARVARD AVE&E 17TH ST S,1706 S HARVARD AVE & E 17TH ST S,36.136786,-95.940475,,,,
5920,2stDet,E 2ND ST S&S DETROIT AVE,316 E 2ND ST S & S DETROIT AVE,36.155641,-95.987718,,,,
5923,3stDet,E 3RD ST S&S DETROIT AVE,,36.154615,-95.987913,,,,
5924,Sher48st,S SHERIDAN RD&E 48TH ST S,4753 S SHERIDAN RD & E 48TH ST S,36.094444,-95.904316,,,,
5925,51stDar,E 51ST ST S&S DARLINGTON AVE,5340 E 51ST ST S & S DARLINGTON AVE,36.089779,-95.917279,,,,
5926,51stFul,E 51ST ST S&S FULTON AVE,5467 E 51ST ST S & S FULTON AVE,36.08995,-95.915846,,,,
5927,51stHarv,E 51ST ST S&S HARVARD AVE,3448 E 51ST ST S & S HARVARD AVE,36.089739,-95.938445,,,,
5928,51stMari,E 51ST ST S&S MARION AVE,3587 E 51ST ST S & S MARION AVE,36.089917,-95.937001,,,,
5929,51stHud,E 51ST ST S&S HUDSON AVE,5712 E 51ST ST S & S HUDSON AVE,36.089787,-95.913039,,,,
5930,51stJop,E 51ST ST S&S JOPLIN AVE,5914 E 51ST ST S & S JOPLIN AVE,36.08979,-95.909098,,,,
5931,51stJop,E 51ST ST S&S JOPLIN AVE,5885 E 51ST ST S & S JOPLIN AVE,36.089935,-95.909759,,,,
5932,51stOswe,E 51ST ST S&S OSWEGO AVE,3909 E 51ST ST S & S OSWEGO AVE,36.089898,-95.933015,,,,
5933,51stOswe,E 51ST ST S&S OSWEGO AVE,3807 E 51ST ST S & S OSWEGO AVE,36.089897,-95.934512,,,,
5934,51stOswe,E 51ST ST S&S OSWEGO AVE,3985 E 51ST ST S & S OSWEGO AVE,36.089906,-95.931822,,,,
5935,51stRich,E 51ST ST S&S RICHMOND AVE,4138 E 51ST ST S & S RICHMOND AVE,36.089785,-95.928686,,,,
5937,51stTol,E 51ST ST S&S TOLEDO AVE,4389 E 51ST ST S & S TOLEDO AVE,36.089921,-95.927304,,,,
5938,51stTol,E 51ST ST S&S TOLEDO AVE,4512 E 51ST ST S & S TOLEDO AVE,36.089783,-95.926487,,,,
5939,51stVand,E 51ST ST S&S VANDALIA AVE,4675 E 51ST ST S & S VANDALIA AVE/E 50TH ST,36.089934,-95.925033,,,,
5940,51stYa,E 51ST ST S&S YALE AVE,4773 E 51ST ST S & S YALE AVE,36.089968,-95.923023,,,,
5941,51stRich,E 51ST ST S&S RICHMOND AVE,4321 E 51ST ST S & S RICHMOND AVE/S TOLEDO AVE,36.089922,-95.928876,,,,
5942,51stOswe,E 51ST ST S&S OSWEGO AVE,3924 E 51ST ST S & S OSWEGO AVE,36.089763,-95.932717,,,,
5943,Dnvr3st,S DENVER AVE&W 3RD ST S,251 S DENVER AVE & W 3RD ST S,36.152642,-95.994767,,,,
5945,Harv13st,S HARVARD AVE&E 13TH ST S,1289 S HARVARD AVE & E 13TH ST S,36.144383,-95.940258,,,,
5946,Harv22st,S HARVARD AVE&E 22ND ST S,2129 S HARVARD AVE & E 22ND ST S,36.132086,-95.940244,,,,
5947,Harv22st,S HARVARD AVE&E 22ND ST S,,36.130291,-95.940453,,,,
5948,Harv23st,S HARVARD AVE&E 23RD ST S,,36.130323,-95.940225,,,,
5949,HarvFloP,S HARVARD AVE&S FLORENCE PL,,36.128828,-95.940407,,,,
5950,Harv25st,S HARVARD AVE&E 25TH ST S,,36.128073,-95.940241,,,,
5951,Harv27st,S HARVARD AVE&E 27TH ST S,2679 S HARVARD AVE & E 27TH ST S,36.12459,-95.940195,,,,
5952,Harv28st,S HARVARD AVE&E 28TH ST S,2775 S HARVARD AVE & E 28TH ST S,36.122679,-95.940188,,,,
5953,Harv27st,S HARVARD AVE&E 27TH ST S,2712 S HARVARD AVE & E 27TH ST S,36.123763,-95.940413,,,,
5954,Harv27Pl,S HARVARD AVE&E 27TH PL S,2713 S HARVARD AVE & E 27TH PL S,36.12379,-95.940183,,,,
5955,Harv28st,S HARVARD AVE&E 28TH ST S,2836 S HARVARD AVE & E 28TH ST S,36.122072,-95.940388,,,,
5956,Harv30st,S HARVARD AVE&E 30TH ST S,2911 S HARVARD AVE & E 30TH ST S,36.121468,-95.94019,,,,
5957,Harv30Pl,S HARVARD AVE&E 30TH PL S,3015 S HARVARD AVE & E 30TH PL S,36.11998,-95.940188,,,,
5959,Harv31st,S HARVARD AVE&E 31ST ST S,3067 S HARVARD AVE & E 31ST ST S,36.119153,-95.940189,,,,
5960,Harv39st,S HARVARD AVE&E 39TH ST S,3837 S HARVARD AVE & E 38TH ST S,36.106775,-95.94031,,,,
5961,Harv41st,S HARVARD AVE&E 41ST ST S,4162 S HARVARD AVE & E 41ST ST S,36.103686,-95.94029,,,,
5962,Harv44st,S HARVARD AVE&E 44TH ST S,4377 S HARVARD AVE & E 44TH ST S,36.101753,-95.940117,,,,
5963,Harv44st,S HARVARD AVE&E 44TH ST S,4412 S HARVARD AVE & E 44TH ST S,36.101338,-95.940306,,,,
5964,Harv45st,S HARVARD AVE&E 45TH ST S,4467 S HARVARD AVE & E 45TH ST S,36.100217,-95.94011,,,,
5965,Harv45st,S HARVARD AVE&E 45TH ST S,4510 S HARVARD AVE & E 45TH ST S,36.099285,-95.940249,,,,
5966,Harv49st,S HARVARD AVE&E 49TH ST S,4715 S HARVARD AVE & E 49TH ST S,36.094924,-95.940085,,,,
5967,Harv47st,S HARVARD AVE&E 47TH ST S,4708 S HARVARD AVE & E 47TH ST S,36.095034,-95.940243,,,,
5968,HarvSkDr,S HARVARD AVE&E SKELLY DR,4961 S HARVARD AVE & E SKELLY DR,36.092112,-95.940065,,,,
5969,Harv8st,S HARVARD AVE&E 8TH ST S,801 S HARVARD AVE & E 8TH ST S,36.149946,-95.940304,,,,
5970,Harv5st,S HARVARD AVE&E 5TH ST S,,36.153581,-95.940439,,,,
5971,Harv11st,S HARVARD AVE&E 11TH ST S,885 S HARVARD AVE & E 11TH ST S,36.148107,-95.940259,,,,
5972,Harv15st,S HARVARD AVE&E 15TH ST S,1485 S HARVARD AVE & E 15TH ST S,36.140805,-95.940272,,,,
5973,Harv15st,S HARVARD AVE&E 15TH ST S,1512 S HARVARD AVE & E 15TH ST S,36.140345,-95.940471,,,,
5974,Harv17st,S HARVARD AVE&E 17TH ST S,1687 S HARVARD AVE & E 17TH ST S,36.137051,-95.940256,,,,
5975,Harv4st,S HARVARD AVE&E 4TH ST S,410 S HARVARD AVE & E 4TH ST S,36.15563,-95.940441,,,,
5976,Harv5Pl,S HARVARD AVE&E 5TH PL S,525 S HARVARD AVE & E 5TH PL S,36.152893,-95.940285,,,,
5978,Mem37st,S MEMORIAL DR&E 37TH ST S,3714 S MEMORIAL DR & E 37TH ST S,36.110114,-95.886723,,,,
5979,Mem51st,S MEMORIAL DR&E 51ST ST S,5059 S MEMORIAL DR & E 51ST ST S,36.09029,-95.886401,,,,
5980,Sher51st,E 51ST ST S&S SHERIDAN AVE,5017 S SHERIDAN RD & E 51ST ST S,36.090495,-95.904275,,,,
5981,Sher41st,S SHERIDAN RD&E 41ST ST S,4120 S SHERIDAN RD & E 41ST ST S,36.103879,-95.904646,,,,
5982,Sher42st,S SHERIDAN RD&E 42ND ST S,4214 S SHERIDAN RD & E 42ND ST S,36.101744,-95.904619,,,,
5983,Sher42st,S SHERIDAN RD&E 42ND ST S,4149 S SHERIDAN RD & E 42ND ST S,36.103164,-95.904387,,,,
5984,Sher44st,S SHERIDAN RD&E 44TH ST S,4355 S SHERIDAN RD & E 44TH ST S,36.100381,-95.904365,,,,
5985,Sher46st,S SHERIDAN RD&E 46TH ST S,4501 S SHERIDAN RD & E 46TH ST S,36.098202,-95.904352,,,,
5986,Sher50st,S SHERIDAN RD&E 50TH ST S,4924 S SHERIDAN RD & E 50TH ST S,36.091156,-95.904507,,,,
5987,Sher46st,S SHERIDAN RD&E 46TH ST S,4616 S SHERIDAN RD & E 46TH ST S,36.096453,-95.904572,,,,
5988,Sher48st,S SHERIDAN RD&E 48TH ST S,4808 S SHERIDAN RD & E 48TH ST S,36.093621,-95.904546,,,,
5989,Ya55Pl,S YALE AVE&E 55TH PL S,5487 S YALE AVE & E 55TH PL S,36.083292,-95.922056,,,,
5990,Ya55Pl,S YALE AVE&E 55TH PL S,5516 S YALE AVE & E 55TH PL S,36.082872,-95.922392,,,,
5991,Ya61st,S YALE AVE&E 61ST ST S,6061 S YALE AVE & E 61ST ST S,36.075928,-95.92199,,,,
5992,Ya66st,S YALE AVE&E 66TH ST S,6583 S YALE AVE & E 66TH ST S,36.068514,-95.922037,,,,
5993,Ya68st,S YALE AVE&E 68TH ST S,6732 S YALE AVE & E 68TH ST S,36.065452,-95.922254,,,,
5994,Ya65st,S YALE AVE&E 65TH ST,6457 S YALE AVE & E 65TH ST,36.070477,-95.922041,,,,
5997,Peo65st,N PEORIA AVE&E 65TH ST N,6464 N PEORIA AVE & E 65TH ST N,36.247202,-95.975644,,,,
5998,Peo63st,N PEORIA AVE & 63RD ST N,6268 N PEORIA AVE & E 63TH ST N,36.245447,-95.97565,,,,
5999,Peo60Pl,N PEORIA AVE & 60TH ST N,6018 N PEORIA AVE & E 60TH PL N,36.241164,-95.975638,,,,
6001,Peo56st,N PEORIA AVE & 56TH ST N,5480 N PEORIA AVE & E 56TH ST N,36.234333,-95.975651,,,,
6002,Peo54st,N PEORIA AVE & 54TH ST N,5284 N PEORIA AVE & E 54TH ST N,36.230947,-95.97565,,,,
6004,Peo50Pl,N PEORIA AVE&E 50TH PL N,5038 N PEORIA AVE & E 50TH PL N,36.226633,-95.975662,,,,
6005,Peo50st,N PEORIA AVE&E 50TH ST N,4974 N PEORIA AVE & E 50TH ST N,36.225098,-95.975658,,,,
6006,Peo47Pl,N PEORIA AVE&E 47TH PL N,4742 N PEORIA AVE & E 47TH PL N,36.223136,-95.975659,,,,
6007,Peo46st,N PEORIA AVE & E 48 TH ST N,4574 N PEORIA AVE & E 46TH ST N,36.220126,-95.975692,,,,
6008,Peo46st,N PEORIA AVE&E 46TH ST N,3858 N PEORIA AVE & E 46TH ST N,36.20963,-95.975645,,,,
6009,Peo38st,N PEORIA AVE&E 38TH ST N,3690 N PEORIA AVE & E 38TH ST N,36.208526,-95.97565,,,,
6010,Peo38st,N PEORIA AVE&E 38TH ST N,3642 N PEORIA AVE & E 38TH ST N,36.207121,-95.97566,,,,
6011,Peo36st,N PEORIA AVE&E 36TH ST N,3588 N PEORIA AVE & E 36TH ST N,36.205625,-95.975694,,,,
6012,PeoMHKB,N PEORIA AVE&MOHAWK BLVD,2794 N PEORIA AVE & MOHAWK BLVD,36.194716,-95.975899,,,,
6013,PeoApch,N PEORIA AVE&E APACHE ST,2600 N PEORIA AVE & E APACHE ST,36.19094,-95.976109,,,,
6016,ArchChey,W ARCHER ST&N CHEYANNE AVE,263 W ARCHER ST & N CHEYANNE AVE,36.156247,-95.99634,,,,
6017,ArchElw,W ARCHER ST&N ELWOOD AVE,463 W ARCHER ST & N ELWOOD AVE,36.155485,-95.998647,,,,
6018,71stElw,W 71ST ST S&S ELWOOD AVE,388 W 71ST ST S & S ELWOOD AVE,36.060878,-95.993439,,,,
6019,25stNoga,W 25TH ST S&S NOGALES AVE,W 25RD ST S & S NOGALES AVE,36.126329,-96.003666,,,,
6020,25stJack,W 25TH ST S&S JACKSON AVE,W 25RD ST S & S JACKSON AVE,36.126325,-95.999798,,,,
6021,23stSW,W 23RD ST S&SOUTHWEST BLVD,,36.129722,-96.006499,,,,
6022,23stNoga,W 23RD ST S&S NOGALES AVE,966 W 23RD ST S & S NOGALES AVE,36.129736,-96.002896,,,,
6024,SW25st,W 25TH ST S&S JACKSON AVE,2714 SOUTHWEST BLVD & W 25TH ST S/UNNAMED ST,36.125818,-96.007267,,,,
6025,SW17st,SOUTHWEST BLVD&W 17TH ST S,1860 SOUTHWEST BLVD & W 17TH ST S,36.135939,-96.007053,,,,
6026,SW21st,SOUTHWEST BLVD&W 21ST ST S,2108 SOUTHWEST BLVD & W 21ST ST S,36.133203,-96.007085,,,,
6027,SW17st,SOUTHWEST BLVD&W 17TH ST S,1728 SOUTHWEST BLVD & W 17TH ST S,36.137299,-96.00704,,,,
6028,YaZur,S YALE AVE&S ZURICH AVE,6933 S YALE AVE & S ZURICH AVE/E 71ST ST S,36.062899,-95.921995,,,,
6029,Wh81st,S WHEELING AVE&E 81ST ST S,7823 S WHEELING AVE & E 81ST ST S,36.049684,-95.964562,,,,
6030,Wh72st,S WHEELING AVE&E 72ND ST S,7209 S WHEELING AVE & E 72ND ST S,36.058765,-95.963841,,,,
6031,Wh71st,S WHEELING AVE&E 71ST ST S,7114 S WHEELING AVE & E 71ST ST S,36.060336,-95.963523,,,,
6032,Wh81st,S WHEELING AVE&E 81ST ST S,8013 S WHEELING AVE & E 81ST ST S,36.047428,-95.964187,,,,
6033,Unio61st,S 61ST ST & UNION,6118 S UNION AVE & W 61ST ST S,36.074698,-96.01181,,,,
6034,Peo53st,S PEORIA AVE&E 53RD ST S,5133 S PEORIA AVE & E 53RD ST S,36.088677,-95.975672,,,,
6035,Peo51st,S PEORIA AVE&E 51ST ST S,5122 S PEORIA AVE & E 51ST ST S,36.088903,-95.975844,,,,
6036,Peo8st,S PEORIA AVE&E 8TH ST S,657 S PEORIA AVE & E 8TH ST S,36.150698,-95.975545,,,,
6037,Peo8st,S PEORIA AVE&E 8TH ST S,832 S PEORIA AVE & E 8TH ST S,36.150023,-95.975714,,,,
6039,PeoRivD,S PEORIA AVE&RIVERSIDE DR,6933 S PEORIA AVE & RIVERSIDE DR,36.063446,-95.975728,,,,
6040,Peo68st,S PEORIA AVE&E 68TH ST S,6862 S PEORIA AVE & E 68TH ST S,36.063944,-95.975904,,,,
6041,Peo67st,S PEORIA AVE&E 67TH ST S,6679 S PEORIA AVE & E 67TH ST S,36.066446,-95.97571,,,,
6042,Peo67st,S PEORIA AVE&E 67TH ST S,6720 S PEORIA AVE & E 67TH ST S,36.065779,-95.975862,,,,
6043,Peo61st,S PEORIA AVE&E 61ST ST S,6061 S PEORIA AVE & E 61ST ST S,36.075884,-95.975672,,,,
6044,Peo60st,S PEORIA AVE&E 60TH ST S,5977 S PEORIA AVE & E 60TH ST S,36.077287,-95.975729,,,,
6045,Peo60st,S PEORIA AVE&E 60TH ST S,6012 S PEORIA AVE & E 60TH ST S,36.076779,-95.975863,,,,
6046,Peo60st,S PEORIA AVE&E 60TH ST S,5827 S PEORIA AVE & E 60TH ST S,36.07868,-95.975719,,,,
6047,Peo58st,S PEORIA AVE&E 58TH ST S,5836 S PEORIA AVE & E 58TH ST S,36.078521,-95.975864,,,,
6048,Peo57Pl,S PEORIA AVE&E 57TH PL S,5691 S PEORIA AVE & E 57TH PL S,36.079915,-95.975733,,,,
6049,Peo56st,S PEORIA AVE&E 56TH ST S,5686 S PEORIA AVE & E 56TH ST S,36.080004,-95.975851,,,,
6050,Peo56st,S PEORIA AVE&E 56TH ST S,5610 S PEORIA AVE & E 56TH ST S,36.082201,-95.975882,,,,
6052,Peo55st,S PEORIA AVE&E 55TH ST S,5510 S PEORIA AVE & E 55TH ST S,36.083992,-95.975855,,,,
6053,Peo53st,S PEORIA AVE&E 53RD ST S,5258 S PEORIA AVE & E 53RD ST S,36.086654,-95.97585,,,,
6054,Peo53Pl,S PEORIA AVE&E 53RD PL S,5275 S PEORIA AVE & E 53RD PL S,36.086421,-95.975677,,,,
6055,Peo49Pl,S PEORIA AVE&E 49TH PL S,4930 S PEORIA AVE & E 49TH PL S,36.09193,-95.975849,,,,
6056,Peo49Pl,S PEORIA AVE&E 49TH PL S,4913 S PEORIA AVE & E 49TH PL S,36.092543,-95.975642,,,,
6057,Peo51ST,S PEORIA AVE&E SKELLY DR,4961 S PEORIA AVE & E SKELLY DR,36.09116,-95.975646,,,,
6058,Peo48st,S PEORIA AVE&E 48TH ST S,4820 S PEORIA AVE & E 48TH ST S,36.094592,-95.975855,,,,
6059,Peo48st,S PEORIA AVE&E 48TH ST S,4763 S PEORIA AVE & E 48TH ST S,36.095633,-95.975632,,,,
6060,Peo45Pl,S PEORIA AVE&E 45TH PL S,4483 S PEORIA AVE & E 45TH PL S,36.09819,-95.975582,,,,
6061,Peo45Pl,S PEORIA AVE&E 45TH PL S,4504 S PEORIA AVE & E 45TH PL S,36.098022,-95.975837,,,,
6062,Peo44Pl,S PEORIA AVE&E 44TH PL S,4441 S PEORIA AVE & E 44TH PL S,36.099114,-95.975629,,,,
6063,Peo43st,S PEORIA AVE&E 43RD ST S,4306 S PEORIA AVE & E 43RD ST S,36.100434,-95.975837,,,,
6064,Peo43st,S PEORIA AVE&E 43RD ST S,4249 S PEORIA AVE & E 43RD ST S,36.10124,-95.975615,,,,
6065,Peo39st,S PEORIA AVE&E 39TH ST S,3958 S PEORIA AVE & E 39TH ST S,36.104967,-95.975826,,,,
6066,Peo41st,S PEORIA AVE&E 41ST ST S,4108 S PEORIA AVE & E 41ST ST S,36.104013,-95.975831,,,,
6067,Peo41st,S PEORIA AVE&E 41ST  ST S,4121 S PEORIA AVE & E 41ST  ST S,36.103608,-95.975628,,,,
6069,Peo46st,S PEORIA AVE&E 46TH ST S,4680 S PEORIA AVE & E 46TH ST S,36.096292,-95.975845,,,,
6070,Peo36st,S PEORIA AVE&E 36TH ST S,3573 S PEORIA AVE & E 36TH ST S,36.112008,-95.97561,,,,
6071,Peo33Pl,S PEORIA AVE&E 33RD PL S,3360 S PEORIA AVE & E 33RD PL S,36.114554,-95.975834,,,,
6073,Peo31st,S PEORIA AVE&E 31ST ST S,3085 S PEORIA AVE & E 31ST ST S,36.119064,-95.975621,,,,
6074,Peo2st,S PEORIA AVE&E 2ND ST S,167 S PEORIA AVE & E 2ND ST S,36.157989,-95.975535,,,,
6075,Peo2st,PEORIA & 2ND ST S,218 S PEORIA AVE & E 2ND ST S,36.157484,-95.97568,,,,
6076,Peo29st,S PEORIA AVE&E 29TH ST S,2861 S PEORIA AVE & E 29TH ST S,36.122685,-95.975646,,,,
6077,Peo29Pl,S PEORIA AVE&E 29TH PL S,2924 S PEORIA AVE & E 29TH PL S,36.121756,-95.975747,,,,
6078,Peo26st,S PEORIA AVE&E 26TH ST S,,36.12697,-95.975723,,,,
6079,Peo25st,S PEORIA AVE&E 25TH ST S,2481 S PEORIA AVE & E 25TH ST S,36.128621,-95.975602,,,,
6080,Peo24Pl,S PEORIA AVE&E 24TH PL S,2418 S PEORIA AVE & E 24TH PL S,36.129524,-95.97572,,,,
6081,Peo21st,S PEORIA AVE&E 21TH ST S,,36.13368,-95.975611,,,,
6082,Peo21Pl,S PEORIA AVE&E 21TH PL S,2195 S PEORIA AVE & E 21TH PL S,36.131653,-95.975612,,,,
6083,Peo21st,S PEORIA AVE&E 21ST ST S,2136 S PEORIA AVE & E 21ST ST S,36.13267,-95.975726,,,,
6084,Peo1st,S PEORIA AVE&E 1ST ST S,118 S PEORIA AVE & E 1ST ST S,36.158472,-95.975711,,,,
6085,Peo18st,S PEORIA AVE&E 18TH ST S,1810 S PEORIA AVE & E 18TH ST S,36.135933,-95.975713,,,,
6086,Peo17st,S PEORIA AVE&E 17TH ST S,1706 S PEORIA AVE & E 17TH ST S,36.137763,-95.9757,,,,
6087,Peo16st,S PEORIA AVE&E 16TH ST S,1523 S PEORIA AVE & E 16TH ST S,36.139718,-95.975521,,,,
6088,Peo15st,S PEORIA AVE&E 15TH ST S,,36.140872,-95.975554,,,,
6089,Peo15st,S PEORIA AVE&E 15TH ST S,1506 S PEORIA AVE & E 15TH ST S,36.14032,-95.975742,,,,
6090,Peo13st,S PEORIA AVE&E 13TH ST S,1277 S PEORIA AVE & E 13TH ST S,36.144694,-95.97554,,,,
6091,Peo13st,S PEORIA AVE&E 13TH ST S,,36.144026,-95.975727,,,,
6092,Peo12st,S PEORIA AVE&E 12TH ST S,1191 S PEORIA AVE & E 12TH ST S,36.14613,-95.975528,,,,
6093,Peo12st,S PEORIA AVE&E 12TH ST S,1190 S PEORIA AVE & E 12TH ST S,36.14612,-95.975719,,,,
6095,Peo11st,S PEORIA AVE&E 11TH ST S,,36.1488,-95.975535,,,,
6096,Peo17st,S PEORIA AVE&E 17TH ST S,1653 S PEORIA AVE & E 17TH ST S,36.138466,-95.97555,,,,
6097,Peo27Pl,S PEORIA AVE&E 27TH PL S,2711 S PEORIA AVE & E 27TH PL S,36.124523,-95.975622,,,,
6098,Peo26Pl,S PEORIA AVE&E 26TH PL S,,36.126778,-95.975644,,,,
6099,Peo28st,S PEORIA AVE&E 28TH ST,2802 S PEORIA AVE & E 28TH ST,36.123561,-95.975764,,,,
6100,NewP66Pl,S NEWPORT AVE&E 66TH PL S,6699 S NEWPORT AVE & E 66TH PL S,36.068535,-95.978086,,,,
6101,Mem55st,S MEMORIAL DR&E 55TH ST S,5530 S MEMORIAL DR & E 55TH ST S,36.084762,-95.886645,,,,
6102,Mem87st,S MEMORIAL DR&E 87TH ST S,8549 S MEMORIAL DR & E 87TH ST S,36.041011,-95.88604,,,,
6103,Mem63st,S MEMORIAL DR&E 63RD ST S,6179 S MEMORIAL DR & E 63RD ST S,36.073832,-95.886316,,,,
6104,Mem63Pl,S MEMORIAL DR&E 63RD PL S,6363 S MEMORIAL DR & E 63RD PL S,36.071886,-95.886315,,,,
6105,Mem87Ct,S MEMORIAL DR&E 87TH CT S,8727 S MEMORIAL DR & E 87TH CT S,36.038476,-95.886032,,,,
6106,Mem81st,S MEMORIAL DR&E 81ST ST S,8059 S MEMORIAL DR & E 81ST ST S,36.047296,-95.886041,,,,
6107,Mem79st,S MEMORIAL DR&E 79TH ST S,7912 S MEMORIAL DR & E 79TH ST S,36.049734,-95.886373,,,,
6108,Mem77Ct,S MEMORIAL DR&E 77TH CT S,7715 S MEMORIAL DR & E 77TH CT S,36.052714,-95.886068,,,,
6109,Mem76st,S MEMORIAL DR&E 76TH ST S,7612 S MEMORIAL DR & E 76TH ST S,36.053628,-95.886392,,,,
6110,Mem73st,S MEMORIAL DR&E 73RD ST S,7206 S MEMORIAL DR & E 73RD ST S,36.058098,-95.886467,,,,
6111,Mem73st,S MEMORIAL DR&E 73RD ST S,7129 S MEMORIAL DR & E 73RD ST S,36.059663,-95.886204,,,,
6112,Mem68st,S MEMORIAL DR&E 68TH ST S,6724 S MEMORIAL DR & E 68TH ST S,36.065381,-95.886543,,,,
6113,Mem66st,S MEMORIAL DR&E 66TH ST S,6571 S MEMORIAL DR & E 66TH ST S,36.068228,-95.886311,,,,
6114,Mem65st,S MEMORIAL DR&E 65TH ST S,6481 S MEMORIAL DR & E 65TH ST S,36.069814,-95.886305,,,,
6115,Mem63st,S MEMORIAL DR&E 63RD ST S,6238 S MEMORIAL DR & E 63RD ST S,36.073199,-95.886557,,,,
6116,Mem63Pl,S MEMORIAL DR&E 63RD PL S,6414 S MEMORIAL DR & E 63RD PL S,36.071202,-95.886557,,,,
6117,Mem61st,S MEMORIAL DR&E 61ST ST S,6118 S MEMORIAL DR & E 61ST ST S,36.075017,-95.886559,,,,
6118,Mem60st,S MEMORIAL DR&E 60TH ST S,5981 S MEMORIAL DR & E 60TH ST S,36.077228,-95.886326,,,,
6119,Mem60st,S MEMORIAL DR&E 60TH ST S,6018 S MEMORIAL DR & E 60TH ST S,36.076635,-95.886567,,,,
6120,Mem58st,S MEMORIAL DR&E 58TH ST S,5755 S MEMORIAL DR & E 58TH ST S,36.080647,-95.886366,,,,
6121,Mem58Pl,S MEMORIAL DR&E 58TH PL S,5826 S MEMORIAL DR & E 58TH PL S,36.078662,-95.886564,,,,
6122,Mem57st,S MEMORIAL DR&E 57TH ST S,5703 S MEMORIAL DR & E 57TH ST S,36.082599,-95.886397,,,,
6123,Mem57st,S MEMORIAL DR&E 57TH ST S,5706 S MEMORIAL DR & E 57TH ST S,36.082344,-95.886626,,,,
6126,Mem51st,S MEMORIAL DR&E 51ST ST S,5214 S MEMORIAL DR & E 51ST ST S,36.088748,-95.886681,,,,
6127,Mem49st,S MEMORIAL DR&E 49TH ST S,,36.09295,-95.886406,,,,
6128,Mem49st,S MEMORIAL DR&E 49TH ST S,,36.092735,-95.886673,,,,
6129,Mem48st,S MEMORIAL DR&E 48TH ST S,4745 S MEMORIAL DR & E 48TH ST S,36.095126,-95.886431,,,,
6130,Mem46st,S MEMORIAL DR&E 46TH ST S,4620 S MEMORIAL DR & E 46TH ST S,36.09698,-95.886668,,,,
6131,Mem48st,S MEMORIAL DR&E 48TH ST S,4810 S MEMORIAL DR & E 48TH ST S,36.094281,-95.886664,,,,
6132,Mem91st,S MEMORIAL DR&E 91ST ST S,8949 S MEMORIAL DR & E 91ST ST S,36.034289,-95.886221,,,,
6133,Ma6st,S MAIN ST&W 6TH ST S,608 S MAIN ST & W 6TH ST S,36.150351,-95.989565,,,,
6134,Ma14st,S MAIN ST&W 14TH ST S,1404 S MAIN ST & W 14TH ST S,36.142341,-95.987413,,,,
6137,LawtHTW,S LAWTON AVE/SOUTHWEST BLVD&W HEAVY,458 S LAWTON AVE/SOUTHWEST BLVD & W HEAVY TRAFFIC WAY,36.14854,-96.000944,,,,
6138,Lew66Pl,S LEWIS AVE&E 66TH PL S,6591 S LEWIS AVE & E 66TH PL S,36.06799,-95.957837,,,,
6139,Lew56Pl,S LEWIS AVE&E 56TH PL S,5593 S LEWIS AVE & E 56TH PL S,36.081669,-95.957891,,,,
6140,Lew45st,S LEWIS AVE&E 45TH ST S,4481 S LEWIS AVE & E 45TH ST S,36.099012,-95.957918,,,,
6141,Lew46Pl,S LEWIS AVE&E 46TH PL S,4619 S LEWIS AVE & E 46TH PL S,36.096358,-95.957914,,,,
6142,LewMagn,S LEWIS AVE&E MAGNOLIA DR,8778 S LEWIS AVE & E MAGNOLIA DR,36.036272,-95.954786,,,,
6143,LewMHKB,N LEWIS AVE&MOHAWK BLVD,3527 N LEWIS AVE & MOHAWK BLVD,36.205161,-95.958114,,,,
6144,LewTecm,N LEWIS AVE&E TECUMSEH ST,1921 N LEWIS AVE & E TECUMSEH ST,36.18225,-95.958159,,,,
6145,LewSkDr,S LEWIS AVE&E SKELLY DR,4959 S LEWIS AVE & E SKELLY DR,36.091516,-95.957898,,,,
6146,LewPine,N LEWIS & PINE,1515 N LEWIS AVE & E PINE ST,36.177357,-95.958161,,,,
6147,LewNwtS,N LEWIS AVE&E NEWTON ST,1305 N LEWIS AVE & E NEWTON ST,36.17372,-95.958174,,,,
6148,LewMHKB,N LEWIS AVE&MOHAWK BLVD,3464 N LEWIS AVE & MOHAWK BLVD,36.20445,-95.958291,,,,
6149,LewDaws,N LEWIS AVE&DAWSON RD,1183 N LEWIS AVE & DAWSON RD,36.171986,-95.958148,,,,
6150,LewIndp,N LEWIS AVE&E INDEPENDANCE ST,825 N LEWIS AVE & E INDEPENDANCE ST,36.166526,-95.958101,,,,
6151,LewHskS,N LEWIS AVE&E HASKELL ST,719 N LEWIS AVE & E HASKELL ST,36.164696,-95.958087,,,,
6152,LewArch,N LEWIS AVE&E ARCHER ST,131 N LEWIS AVE & E ARCHER ST,36.162977,-95.958096,,,,
6153,LewApch,N LEWIS AVE&E APACHE ST,2601 N LEWIS AVE & E APACHE ST,36.191908,-95.958097,,,,
6154,LewApch,N LEWIS AVE&E APACHE ST,2488 N LEWIS AVE & E APACHE ST,36.191184,-95.958314,,,,
6155,LewAdm,N LEWIS AVE&E ADMIRAL PL,67 N LEWIS AVE & E ADMIRAL PL,36.161447,-95.958091,,,,
6156,Lew8st,S LEWIS AVE&E 8TH ST S,781 S LEWIS AVE & E 8TH ST S,36.150009,-95.958113,,,,
6158,Lew73st,S LEWIS AVE&E 73RD ST S,7298 S LEWIS AVE & E 73RD ST S,36.057705,-95.957934,,,,
6159,Lew73st,S LEWIS AVE&E 73RD ST S,7480 S LEWIS AVE & E 73RD ST S,36.055647,-95.95794,,,,
6160,Lew71st,S LEWIS AVE&E 71ST ST S,7124 S LEWIS AVE & E 71ST ST S,36.060391,-95.957973,,,,
6161,Lew6st,6TH ST S & LEWIS,642 S LEWIS AVE & E 6TH ST S,36.151258,-95.958285,,,,
6162,Lew69st,S LEWIS AVE&E 69TH ST S,6954 S LEWIS AVE & E 69TH ST S,36.062823,-95.957965,,,,
6163,Lew66Pl,S LEWIS AVE&E 66TH PL S,6636 S LEWIS AVE & E 66TH PL S,36.067173,-95.957994,,,,
6164,Lew61st,S LEWIS AVE&E 61ST ST S,6116 S LEWIS AVE & E 61ST ST S,36.074811,-95.958075,,,,
6165,Lew57st,S LEWIS AVE&E 57TH ST S,5872 S LEWIS AVE & E 57TH ST S,36.07905,-95.95806,,,,
6166,Lew56Pl,S LEWIS AVE&E 56TH PL S,5614 S LEWIS AVE & E 56TH PL S,36.081279,-95.958034,,,,
6167,Lew52st,S LEWIS AVE&E 52ND ST S,5264 S LEWIS AVE & E 52ND ST S,36.086487,-95.958054,,,,
6168,Lew51st,S LEWIS AVE&E 51ND ST S,5120 S LEWIS AVE & E 51ST ST S,36.089267,-95.958057,,,,
6169,Lew47st,S LEWIS AVE&E 47TH ST S,4718 S LEWIS AVE & E 47TH ST S,36.095043,-95.958051,,,,
6170,Lew47Pl,S LEWIS AVE&E 47TH PL S,4781 S LEWIS AVE & E 47TH PL S,36.094526,-95.957905,,,,
6171,Lew45Pl,S LEWIS AVE&E 45TH PL S,4556 S LEWIS AVE & E 45TH PL S,36.097574,-95.958054,,,,
6173,Lew41st,S LEWIS AVE&E 41ST ST S,4071 S LEWIS AVE & E 41ST ST S,36.104554,-95.957878,,,,
6174,Lew39st,S LEWIS AVE&E 39TH ST S,3891 S LEWIS AVE & E 39TH ST S,36.106787,-95.958016,,,,
6175,Lew44st,S LEWIS AVE&E 44TH ST S,4135 S LEWIS AVE & E 44TH ST S,36.103722,-95.957954,,,,
6177,Lew40st,S LEWIS AVE&E 40TH ST S,3914 S LEWIS AVE & E 40TH ST S,36.106523,-95.958073,,,,
6178,Lew38st,S LEWIS AVE&E 38TH ST S,3779 S LEWIS AVE & E 38TH ST S,36.108104,-95.957988,,,,
6179,Lew37st,S LEWIS AVE&E 37TH ST S,3702 S LEWIS AVE & E 37TH ST S,36.108722,-95.958111,,,,
6180,Lew36st,S LEWIS AVE&E 36TH ST S,3577 S LEWIS AVE & E 36TH ST S,36.111868,-95.958034,,,,
6181,Lew36st,S LEWIS AVE&E 36TH ST S,3608 S LEWIS AVE & E 36TH ST S,36.111221,-95.958143,,,,
6182,Lew35st,S LEWIS AVE&E 35TH ST S,3491 S LEWIS AVE & E 35TH ST S,36.113151,-95.958031,,,,
6183,Lew34st,S LEWIS AVE&E 34TH ST S,3383 S LEWIS AVE & E 34TH ST S,36.11446,-95.958081,,,,
6184,Lew34st,S LEWIS AVE&E 34TH ST S,3426 S LEWIS AVE & E 34TH ST S,36.11394,-95.958187,,,,
6185,LewMHKB,N LEWIS AVE&MOHAWK BLVD,3324 N LEWIS AVE & MOHAWK BLVD,36.202758,-95.95831,,,,
6186,Lew32st,N LEWIS AVE&E 32ND ST N,3201 N LEWIS AVE & E 32ND ST N,36.200955,-95.958126,,,,
6187,Lew32st,S LEWIS AVE&E 32ND ST S,,36.116732,-95.958065,,,,
6188,Lew31st,S LEWIS AVE&E 31ST ST S,3055 S LEWIS AVE & E 31ST ST S,36.119258,-95.958071,,,,
6189,Lew29st,N LEWIS AVE&E 29TH ST N,2901 N LEWIS AVE & E 29TH ST N,36.195439,-95.958124,,,,
6190,Lew29Pl,N LEWIS AVE&E 29TH PL N,2904 N LEWIS AVE & E 29TH PL N,36.195663,-95.958296,,,,
6191,Lew30st,S LEWIS AVE&E 30TH ST S,2907 S LEWIS AVE & E 30TH ST S,36.121269,-95.9581,,,,
6192,Lew29st,S LEWIS AVE&E 29TH ST S,2906 S LEWIS AVE & E 29TH ST S,36.121218,-95.958252,,,,
6193,Lew28st,N LEWIS AVE&E 28TH ST N,2710 N LEWIS AVE & E 28TH ST N,36.193436,-95.958298,,,,
6194,Lew27Pl,S LEWIS AVE&E 27TH PL S,2711 S LEWIS AVE & E 27TH PL S,36.12359,-95.958121,,,,
6195,Lew26Pl,S LEWIS AVE&E 26TH PL S,,36.125325,-95.95815,,,,
6196,Lew26Pl,S LEWIS AVE&E 26TH PL S,2628 S LEWIS AVE & E 26TH PL S,36.124898,-95.958269,,,,
6197,Lew25Pl,S LEWIS AVE&E 25TH PL S,,36.127131,-95.958168,,,,
6198,Lew25Pl,S LEWIS AVE&E 25TH PL S,,36.126863,-95.958282,,,,
6199,Lew24st,S LEWIS AVE&E 24TH ST S,,36.128918,-95.958137,,,,
6200,Lew24st,S LEWIS AVE&E 24TH ST S,,36.128549,-95.958301,,,,
6201,Lew22Pl,S LEWIS AVE&E 22ND PL S,2275 S LEWIS AVE & E 22ND PL S,36.130767,-95.95817,,,,
6202,Lew22Pl,S LEWIS AVE&E 22ND PL S,,36.130407,-95.95827,,,,
6203,Lew21st,S LEWIS AVE&E 21ST ST S,2059 S LEWIS AVE & E 21ST ST S,36.133566,-95.958173,,,,
6204,Lew20st,S LEWIS AVE&E 20TH ST S,1965 S LEWIS AVE & E 20TH ST S,36.134468,-95.958161,,,,
6205,Lew2st,S LEWIS AVE&E 2ND ST S,149 S LEWIS AVE & E 2ND ST S,36.15811,-95.958047,,,,
6206,Lew19st,S LEWIS AVE&E 19TH ST S,1910 S LEWIS AVE & E 19TH ST S,36.134966,-95.958326,,,,
6207,Lew17Pl,S LEWIS AVE&E 17TH PL S,1744 S LEWIS AVE & E 17TH PL S,36.136649,-95.958317,,,,
6208,Lew16st,S LEWIS AVE&E 16TH ST S,1585 S LEWIS AVE & E 16TH ST S,36.139011,-95.958161,,,,
6209,Lew15st,S LEWIS AVE&E 15TH ST S,1516 S LEWIS AVE & E 15TH ST S,36.140258,-95.958325,,,,
6210,Lew14Pl,S LEWIS AVE&E 14TH PL S,1408 S LEWIS AVE & E 14TH PL S,36.141702,-95.958129,,,,
6211,Lew14Pl,S LEWIS AVE&E 14TH PL S,1440 S LEWIS AVE & E 14TH PL S,36.141399,-95.958294,,,,
6212,Lew13st,S LEWIS AVE&E 13TH ST S,1340 S LEWIS AVE & E 13TH ST S,36.143675,-95.958319,,,,
6213,Lew12Pl,S LEWIS AVE&E 12TH PL S,1250 S LEWIS AVE & E 12TH PL S,36.144864,-95.958307,,,,
6214,Lew11st,S LEWIS AVE&E 11TH ST S,1061 S LEWIS AVE & E 11TH ST S,36.148139,-95.958123,,,,
6215,Lew11st,S LEWIS AVE&E 11TH ST S,1120 S LEWIS AVE & E 11TH ST S,36.147439,-95.958311,,,,
6216,LewDaws,S LEWIS AVE&DAWSON RD,1113 S LEWIS AVE & DAWSON RD,36.170017,-95.958129,,,,
6217,Lew75st,S LEWIS AVE&E 75TH ST S,7930 S LEWIS AVE & E 75TH ST S,36.047776,-95.957975,,,,
6218,Lew75st,S LEWIS AVE&E 75TH ST S,7844 S LEWIS AVE & E 75TH ST S,36.049154,-95.95796,,,,
6219,Lew75st,S LEWIS AVE&E 75TH ST S,7710 S LEWIS AVE & E 75TH ST S/UNNAMED ST,36.051791,-95.957963,,,,
6220,Lew75st,S LEWIS AVE&E 75TH ST S,7656 S LEWIS AVE & E 75TH ST S,36.053183,-95.957977,,,,
6221,LewWdrS,N LEWIS AVE&E WOODROW ST,2423 N LEWIS AVE & E WOODROW ST,36.189462,-95.958116,,,,
6222,Lew87st,S LEWIS AVE&E 87TH ST S,8541 S LEWIS AVE & E 87TH ST S,36.040147,-95.956852,,,,
6223,Lew55Pl,S LEWIS AVE&E 55TH PL S,5531 S LEWIS AVE & E 55TH PL S,36.083604,-95.957888,,,,
6224,Lew81st,S LEWIS AVE&E 81ST ST S,7693 S LEWIS AVE & E 81ST ST S,36.052224,-95.957681,,,,
6225,Lew81st,S LEWIS AVE&E 81ST ST S,7889 S LEWIS AVE & E 81ST ST S,36.048294,-95.957664,,,,
6226,Lew75st,S LEWIS AVE&E 75TH ST S,7481 S LEWIS AVE & E 75TH ST S,36.055662,-95.957763,,,,
6227,Lew73st,S LEWIS AVE&E 73RD ST S,7275 S LEWIS AVE & E 73RD ST S,36.058094,-95.957765,,,,
6228,Lew71st,S LEWIS AVE&E 71ST ST S,7001 S LEWIS AVE & E 71ST ST S,36.062171,-95.957731,,,,
6229,Lew61st,S LEWIS AVE&E 61ST ST S,6071 S LEWIS AVE & E 61ST ST S,36.075634,-95.957869,,,,
6230,Lew59st,S LEWIS AVE&E 59TH ST S,,36.079285,-95.957887,,,,
6231,Lew53st,S LEWIS AVE&E 53RD ST S,5283 S LEWIS AVE & E 53RD ST S,36.086345,-95.957889,,,,
6232,Lew52st,S LEWIS AVE&E 52ND ST S,5155 S LEWIS AVE & E 52ND ST S,36.08852,-95.957878,,,,
6233,Lew83st,S LEWIS AVE&E 83RD ST S,8137 S LEWIS AVE & E 83RD ST S,36.043647,-95.957704,,,,
6234,Jack24st,S JACKSON AVE&W 24TH ST S,2440 S JACKSON AVE & W 23RD ST S,36.127273,-95.999511,,,,
6235,Jack23st,S JACKSON AVE&W 23RD ST S,2326 S JACKSON AVE & W 23RD ST S,36.12936,-95.999528,,,,
6236,Hous4st,S HOUSTON AVE&W 4TH ST S,431 S HOUSTON AVE & W 4TH ST S,36.149854,-95.998857,,,,
6238,Gntt71st,S GARNETT RD & 73RD ST S,S GARNETT RD/S 113TH E AVE & E 71ST ST S/W KENOSHA ST,36.059457,-95.85113,,,,
6239,Det10st,S DETROIT AVE&E 10TH ST S,,36.148521,-95.984166,,,,
6240,Del88st,S DELAWARE AVE&E 88TH ST ST,8782 S DELAWARE AVE & E 88TH ST ST,36.03653,-95.9489,,,,
6241,Del95st,S DELAWARE AVE & E 96TH ST S,9471 S DELAWARE AVE/E 96TH ST S & E 95TH ST S,36.027881,-95.94885,,,,
6242,Del90st,S DELAWARE AVE&E 90TH ST S,8983 S DELAWARE AVE & E 90TH ST S,36.033958,-95.948817,,,,
6243,Cin6st,S CINCINNNATI AVE&E 6TH ST S,642 S CINCINNNATI AVE & E 6TH ST S,36.150913,-95.987082,,,,
6244,BLD15THS,BOULDER & 15TH E,S CHEYENNE AVE & W 5TH ST,36.141117,-95.988388,,,,
6245,Bld5st,5TH & BOULDER,511 S BOULDER AVE & W 5TH ST S,36.150976,-95.991065,,,,
6246,Bld12st,S BOULDER AVE&W 12TH ST S,1171 S BOULDER AVE & W 12TH ST S,36.145188,-95.988408,,,,
6247,Bld12st,S BOULDER AVE&W 12TH ST S,1180 S BOULDER AVE & W 12TH ST S,36.145087,-95.988564,,,,
6249,Bos10st,S BOSTON AVE&E 10TH ST S,929 S BOSTON AVE & E 10TH ST S,36.147803,-95.986592,,,,
6250,81stLew,S 81ST ST&S LEWIS AVE,2017 S 81ST ST & S LEWIS AVE,36.046922,-95.960878,,,,
6251,71stYa,E 71ST ST S&S YALE AVE,4889 E 71ST ST S & S YALE AVE,36.060974,-95.923229,,,,
6252,71stRich,E 71ST ST S&S RICHMOND AVE,4369 E 71ST ST S & S RICHMOND AVE,36.060985,-95.928081,,,,
6253,71stOswe,E 71ST ST S&S OSWEGO AVE,3979 E 71ST ST S & S OSWEGO AVE/S PITTSBURG AVE,36.060997,-95.931827,,,,
6254,71stLew,71ST & LEWIS,2377 E 71ST ST S & S LEWIS AVE,36.060948,-95.9585,,,,
6255,71stIrvg,E 71ST ST S&S IRVINGTON AVE,,36.060979,-95.911917,,,,
6256,71stGran,E 71ST ST S&S GRANITE AVE,5557 E 71ST ST S & S GRANITE AVE,36.060981,-95.914582,,,,
6257,71stFlor,E 71ST ST S&S FLORENCE AVE,3079 E 71ST ST S & S FLORENCE AVE/E 71ST S,36.060978,-95.943256,,,,
6258,71stEvan,E 71ST ST S&S EVANTSTON AVE,2875 E 71ST ST S & S EVANTSTON AVE,36.060972,-95.947134,,,,
6259,71stCant,E 71ST ST S&S CANTON AVE,5115 E 71ST ST S & S CANTON AVE,36.060985,-95.920007,,,,
6260,71stBmPl,E 71ST ST S&S BIRMINGHAM PL,2593 E 71ST ST S & S BIRMINGHAM PL,36.060951,-95.953088,,,,
6261,71stColu,S 71ST ST&S COLUMBIA AVE,2691 S 71ST ST & S COLUMBIA AVE,36.060959,-95.950329,,,,
6262,66st85av,S 66TH ST S&S 85TH E AVE,8371 S 66TH ST S & S 85TH E AVE,36.067901,-95.88333,,,,
6263,85stWHRd,S 85TH E AVE&WOODLAND HILLS RD,6767 S 85TH E AVE & WOODLAND HILLS RD,36.066144,-95.881551,,,,
6264,66stMem,S 66TH ST&S MEMORIAL DR,8370 S 66TH ST & S MEMORIAL DR,36.067751,-95.883349,,,,
6266,PeoIndp,N PEORIA AVE&E INDEPENDANCE ST,800 N PEORIA AVE & E INDEPENDANCE ST,36.16579,-95.975685,,,,
6267,PeoQuee,N PEORIA & QUEEN ST,1598 N PEORIA AVE & E QUEEN ST,36.178749,-95.975756,,,,
6268,PeoPine,N PEORIA AVE&E PINE ST,1466 N PEORIA AVE & E PINE ST,36.176493,-95.975718,,,,
6269,PeoPinP,N PEORIA AVE&E PINE PL,1517 N PEORIA AVE & E PINE PL,36.177438,-95.975441,,,,
6270,PeoLatS,N PEORIA AVE&E LATIMER ST,1066 N PEORIA AVE & E LATIMER ST,36.169409,-95.975695,,,,
6271,PeoPine,N PEORIA AVE&E PINE ST,1196 N PEORIA AVE & E PINE ST,36.171567,-95.975668,,,,
6272,PeoKngS,N PEORIA AVE&E KING ST,906 N PEORIA AVE & E KING ST,36.167316,-95.975696,,,,
6273,PeoIndp,N PEORIA AVE&E INDEPENDENCE ST,855 N PEORIA AVE & E INDEPENDENCE ST,36.166486,-95.975529,,,,
6274,PeoHskS,N PEORIA AVE&E HASKELL ST,705 N PEORIA AVE & E HASKELL ST,36.164458,-95.975515,,,,
6275,PeoHskS,N PEORIA AVE&E HASKELL ST,566 N PEORIA AVE & E HASKELL ST,36.163927,-95.975676,,,,
6276,PeoAdm,N PEORIA AVE&E ADMIRAL PL,28 N PEORIA AVE & E ADMIRAL PL,36.16051,-95.975666,,,,
6277,Peo61st,N PEORIA AVE&E 61ST ST N,6269 N PEORIA AVE & E 61ST ST N,36.245423,-95.975435,,,,
6278,Peo60st,N PEORIA AVE&E 60TH ST N,6021 N PEORIA AVE & E 60TH ST N,36.241224,-95.975475,,,,
6279,Peo56st,N PEORIA AVE&E 56TH ST N,5639 N PEORIA AVE & E 56TH ST N,36.235494,-95.97547,,,,
6280,Peo36st,N PEORIA AVE&E 36TH ST N,3691 N PEORIA AVE & E 36TH ST N,36.208524,-95.975488,,,,
6281,Peo36st,N PEORIA AVE&E 36TH ST N,3647 N PEORIA AVE & E 36TH ST N,36.207371,-95.975479,,,,
6282,Peo33st,N PEORIA AVE&E 33RD ST N,3511 N PEORIA AVE & E 33RD ST N,36.202755,-95.975472,,,,
6283,PeoEaSt,N PEORIA AVE&E EASTON ST,501 N PEORIA AVE & E EASTON ST,36.163169,-95.975535,,,,
6284,PeoApch,N PEORIA AVE&E APACHE ST,2641 N PEORIA AVE & E APACHE ST,36.191978,-95.975768,,,,
6285,MaOkSt,N MAIN ST&E OKLAHOMA ST,1411 N MAIN ST & E OKLAHOMA ST,36.175489,-95.996776,,,,
6286,MaNwtS,N MAIN ST&E NEWTON ST,1309 N MAIN ST & E NEWTON ST,36.173536,-95.996771,,,,
6287,MaMrsh,N MAIN ST&E MARSHALL ST,1211 N MAIN ST & E MARSHALL ST,36.171739,-95.99676,,,,
6288,MaJasp,N MAIN ST&E JASPER ST,905 N MAIN ST & E JASPER ST,36.167189,-95.99679,,,,
6289,LewPine,N LEWIS AVE&E PINE ST,1478 N LEWIS AVE & E PINE ST,36.176814,-95.958337,,,,
6290,LewArch,N LEWIS AVE&E ARCHER ST,94 N LEWIS AVE & E ARCHER ST,36.162436,-95.958244,,,,
6291,LewIndp,N LEWIS AVE&E INDEPEDANCE ST,772 N LEWIS AVE & E INDEPEDANCE ST,36.16582,-95.958268,,,,
6292,LewUte,N LEWIS AVE&E UTE ST,1922 N LEWIS AVE & E UTE ST,36.182244,-95.958296,,,,
6293,LewRead,N LEWIS AVE&E READING ST,1682 N LEWIS AVE & E READING ST,36.179422,-95.958287,,,,
6294,LewMrsh,N LEWIS AVE&E MARSHALL ST,1182 N LEWIS AVE & E MARSHALL ST,36.171977,-95.958304,,,,
6295,LewMrsh,N LEWIS AVE&E MARSHALL ST,1108 N LEWIS AVE & E MARSHALL ST,36.16986,-95.958272,,,,
6296,LewApch,N LEWIS AVE&E APACHE ST,2410 N LEWIS AVE & E APACHE ST,36.189144,-95.958269,,,,
6297,Hart39st,N HARTFORD AVE&E 39TH ST N,,36.210425,-95.984038,,,,
6298,Hart35st,N HARTFORD AVE&E 35TH ST N,3511 N HARTFORD AVE & E 35TH ST N,36.204622,-95.984564,,,,
6299,Hart36st,N HARTFORD AVE&E 36TH ST N,3713 N HARTFORD AVE & E 36TH ST N,36.206515,-95.984529,,,,
6300,Hart56st,56TH ST N & HARTFORD,5593 N HARTFORD AVE & E 56TH ST N/E 54TH PL N,36.234764,-95.9845,,,,
6301,Hart54st,N HARTFORD AVE&E 54TH ST N,5415 N HARTFORD AVE & E 54TH ST N,36.231798,-95.984489,,,,
6302,Hart52Pl,N HARTFORD AVE&E 52ND PL N,5251 N HARTFORD AVE & E 52ND PL N,36.229991,-95.984498,,,,
6303,Hart51Pl,N HARTFORD AVE&E 51ST PL N,5121 N HARTFORD AVE & E 51ST PL N,36.228374,-95.984491,,,,
6304,Hart49st,N HARTFORD AVE&E 49TH ST N,,36.224442,-95.984489,,,,
6305,Hart49Pl,N HARTFORD AVE&E 49TH PL N,4951 N HARTFORD AVE & E 49TH PL N,36.225961,-95.984464,,,,
6306,Hart43st,N HARTFORD AVE&E 43RD ST N,4325 N HARTFORD AVE & E 43RD ST N,36.216855,-95.984408,,,,
6307,Hart42st,N HARTFORD AVE&E 42ND ST N,,36.214787,-95.984449,,,,
6308,GarrMHKB,GARRISON & 27TH ST N,N GARRISON AVE & MOHAWK BLVD,36.193367,-95.986679,,,,
6309,Garr27PL,N GARRISON AVE&E 27TH PL N,,36.194806,-95.986706,,,,
6310,DnvrFair,N DENVER AVE&W FAIRVIEW ST,586 N DENVER AVE & W FAIRVIEW ST,36.162126,-95.99954,,,,
6311,DnvrCamr,N DENVER AVE&W CAMERON ST,248 N DENVER AVE & W CAMERON ST,36.157509,-95.997553,,,,
6312,DnvrBrdy,N DENVER AVE&W BRADY ST,,36.156806,-95.997202,,,,
6313,Dnvr7st,S DENVER AVE&W 7TH ST S,671 S DENVER AVE & W 7TH ST S,36.148635,-95.992639,,,,
6314,Dnvr7st,S DENVER AVE&W 7TH ST S,736 S DENVER AVE & W 7TH ST S,36.148054,-95.992533,,,,
6315,Dnvr6st,S DENVER AVE&W 6TH ST S,624 S DENVER AVE & W 6TH ST S,36.149054,-95.993009,,,,
6317,Dnvr2st,S DENVER AVE&W 2ND ST S,173 S DENVER AVE & W 2ND ST S,36.153391,-95.995194,,,,
6318,Dnvr9st,S DENVER AVE&W 9TH ST S,940 S DENVER AVE & W 9TH ST S,36.146409,-95.992364,,,,
6319,CinXylr,MARTIN LUTHER KING JR BLVD &E XYLER ST,2365 N CINCINNATI AVE & E XYLER ST,36.187223,-95.993455,,,,
6320,CinUteP,MARTIN LUTHER KING JR BLVD &E UTE PL,N CINCINNATI AVE & E UTE PL,36.183937,-95.993446,,,,
6321,CinApch,MARTIN LUTHER KING JR BLVD AVE&E APACHE ST,2607 N CINCINNATI AVE & E APACHE ST,36.191783,-95.993434,,,,
6323,CinPine,PINE & MARTIN LUTHER KING JR BLVD,1527 N CINCINNATI AVE & E PINE ST,36.177422,-95.993406,,,,
6325,Chey3st,S CHEYENNE AVE&W 3RD ST S,354 S CHEYENNE AVE & W 3RD ST S,36.152025,-95.993349,,,,
6326,Chey2st,S CHEYENNE AVE&W 2ND ST S,226 S CHEYENNE AVE & W 2ND ST S,36.153226,-95.99393,,,,
6327,MaJKBchS,W MAIN ST&S BIRCH ST,290 W MAIN ST & S BIRCH ST,36.022526,-95.971923,,,,
6329,MaJKElJ,MAIN & ELM,542 W MAIN ST & S ELM ST,36.022517,-95.975053,,,,
6331,PineMa,E PINE ST&N MAIN ST,,36.176885,-95.996509,,,,
6333,88stLew,88TH ST S & LEWIS,2441 E 88TH ST S & S LEWIS AVE,36.036122,-95.953947,,,,
6334,101a88st,S 101ST E AVE&E 88TH ST S,8856 S 101ST E AVE & E 88TH ST S,36.034753,-95.864719,,,,
6337,81stLew,S LEWIS AVE&E 81ST ST S,2297 E 81ST ST S & S LEWIS AVE,36.046494,-95.958502,,,,
6338,81stYork,E 81ST ST S&S YORKTOWN AVE,2019 E 81ST ST S & S YORKTOWN AVE,36.046501,-95.960773,,,,
6339,7stDet,E 7TH ST S&S DETROIT AVE,237 E 7TH ST S & S DETROIT AVE,36.150605,-95.98629,,,,
6341,73stWh,E 73RD ST S&S WHEELING AVE,,36.057646,-95.963448,,,,
6342,71stBmPl,E 71ST ST S&S BIRMINGHAM PL,2612 E 71ST ST S & S BIRMINGHAM PL,36.060685,-95.952587,,,,
6343,71st109a,71ST ST S & 109TH E AVE,11022 E 71ST ST S & S 109TH E AVE,36.060756,-95.854736,,,,
6344,71stYa,E 71ST ST&S YALE AVE,5020 E 71ST ST & S YALE AVE,36.0607,-95.921619,,,,
6345,71stWh,E 71ST ST S&S WHEELING AVE,1953 E 71ST ST S & S WHEELING AVE/WALLENBERG DR,36.060896,-95.963739,,,,
6346,71stWh,E 71ST ST S&S WHEELING AVE,2108 E 71ST ST S & S WHEELING AVE,36.06065,-95.963016,,,,
6347,71stUtic,E 71ST ST S&S UTICA AVE,1718 E 71ST ST S & S UTICA AVE,36.060624,-95.965931,,,,
6348,71stVict,E 71ST ST S&S VICTOR AVE,1715 E 71ST ST S & S VICTOR AVE,36.060896,-95.96606,,,,
6349,71stTren,E 71ST ST S&S TRENTON AVE,1628 E 71ST ST S & S TRENTON AVE,36.060615,-95.968369,,,,
6350,71stTren,E 71ST ST S&S TRENTON AVE,1587 E 71ST ST S & S TRENTON AVE,36.060871,-95.969392,,,,
6351,71stQuin,E 71ST ST S&S QUINCY AVE,1544 E 71ST ST S & S QUINCY AVE,36.060594,-95.970399,,,,
6352,71stSher,E 71ST ST S&S SHERIDAN RD,6536 E 71ST ST S & S SHERIDAN RD,36.06073,-95.903717,,,,
6353,71stSher,E 71ST ST S&S SHERIDAN RD,6175 E 71ST ST S & S SHERIDAN RD,36.061007,-95.905104,,,,
6354,71stQuin,E 71ST ST S&S QUINCY AVE,1439 E 71ST ST S & S TRENTON AVE,36.060851,-95.972678,,,,
6355,71stQuin,E 71ST ST S&S QUINCY AVE,1416 E 71ST ST S & S QUINCY AVE,36.060573,-95.973183,,,,
6356,71stMngo,E 71ST ST S&S MINGO RD,9637 E 71ST ST S & S MINGO RD/S97TH E AVE,36.061066,-95.869296,,,,
6357,71st78av,E 71ST ST S&S 78TH E AVE,7926 E 71ST ST S & S 78TH E AVE,36.060726,-95.888201,,,,
6358,71stMem,E 71ST ST S&S MEMORIAL DR,,36.060739,-95.885368,,,,
6359,71stLew,E 71ST ST S&S LEWIS AVE,2426 E 71ST ST S & S LEWIS AVE,36.060688,-95.957329,,,,
6360,71stLake,E 71ST ST S&S LAKEWOOD AVE,6106 E 71ST ST S & S LAKEWOOD AVE,36.060715,-95.90785,,,,
6361,71stIrvg,E 71ST ST S&S IRVINGTON AVE,5818 E 71ST ST S & S IRVINGTON AVE,36.060715,-95.911399,,,,
6362,71stHarv,E 71ST ST S&S HARVARD AVE,,36.060705,-95.939493,,,,
6363,71stGran,E 71ST ST S&S GRANITE AVE,5556 E 71ST ST S & S GRANITE AVE,36.060697,-95.91459,,,,
6364,71stEvan,E 71ST ST S&S EVANSTON AVE,2910 E 71ST ST S & S EVANSTON AVE,36.060692,-95.946614,,,,
6365,71stCant,E 71ST ST S&S CANTON AVE,5170 E 71ST ST S & S CANTON AVE,36.060686,-95.918989,,,,
6366,71st92av,E 71ST ST S&S 92ND E AVE,9338 E 71ST ST S & S 92ND E AVE,36.060785,-95.873337,,,,
6367,71st89av,E 71ST ST S&S 89TH E AVE,9018 E 71ST ST S & S 89TH E AVE,36.060771,-95.87738,,,,
6369,71st85av,E 71ST ST S&S 85TH E AVE,8522 E 71ST ST S & S 85TH E AVE,36.060742,-95.882028,,,,
6371,71st73av,E 71ST ST S&S 73RD E AVE,7652 E 71ST ST S & S 73RD E AVE,36.060719,-95.891954,,,,
6372,71st77av,E 71ST ST S&S 77TH E AVE,7677 E 71ST ST S & S 77TH E AVE,36.061015,-95.891689,,,,
6374,71st73av,E 71ST ST S&S 73RD E AVE,7263 E 71ST ST S & S 73RD E AVE,36.061007,-95.895833,,,,
6375,71st70av,E 71ST ST S&S 70TH E AVE,6985 E 71ST ST S & S 70TH E AVE/E 71ST CT S,36.060991,-95.89868,,,,
6376,71st69av,E 71ST ST S&S 69TH E AVE,6914 E 71ST ST S & S 69TH E AVE,36.060758,-95.900155,,,,
6377,71st101a,E 71ST ST S&S 101ST E AVE,10266 E 71ST ST S & S 101ST E AVE,36.060784,-95.863396,,,,
6378,71st101a,E 71ST ST S&S 101ST E AVE,10085 E 71ST ST S & S 101ST E AVE,36.061051,-95.86386,,,,
6379,71stRivD,E 71ST ST S&RIVERSIDE DR,1334 E 71ST ST S & RIVERSIDE DR,36.060557,-95.974849,,,,
6380,71stMem,E 71ST ST&S MEMORIAL DR,7891 E 71ST ST & S MEMORIAL DR,36.061015,-95.888802,,,,
6381,71st85av,E 71ST ST&S 85TH E AVE,8764 E 71ST ST & S 85TH E AVE,36.060741,-95.879421,,,,
6382,71st69av,E 71ST ST&S 69TH E AVE,6689 E 71ST ST & S 69TH E AVE,36.060998,-95.901885,,,,
6387,7stJack,E 7TH ST S&S JACKSON AVE,842 E 7TH ST S & S JACKSON AVE,36.147847,-95.999149,,,,
6388,7stJack,E 7TH ST S&S JACKSON AVE,873 E 7TH ST S & S JACKSON AVE,36.147993,-95.999657,,,,
6391,6stCin,E 6TH ST S&S CINCINNATI AVE,226 E 6TH ST S & S CINCINNATI AVE,36.151386,-95.98684,,,,
6392,6stBld,W 6TH ST&S BOULDER AVE,118 W 6TH ST & S BOULDER AVE,36.149946,-95.990804,,,,
6394,INHOFSB,S NEWPORT AVE&E 66TH PL S,6674 S NEWPORT AVE & E 66TH PL S,36.068833,-95.978182,,,,
6396,61stPeo,E 61ST ST S&S PEORIA AVE,1267 E 61ST ST S & S PEORIA AVE,36.075291,-95.976178,,,,
6397,61stNewP,E 61ST ST S&S NEWPORT AVE,1110 E 61ST ST S & S NEWPORT AVE,36.075203,-95.977946,,,,
6399,56stFkft,E 56TH ST N&N FRANKFORT AVE,487 E 56TH ST N & N FRANKFORT AVE,36.23501,-95.989562,,,,
6400,4stKeno,E 4TH ST S&S KENOSHA AVE,820 E 4TH ST S & S KENOSHA AVE,36.155361,-95.981976,,,,
6401,3stHous,W 3RD ST&S HOUSTON AVE,676 W 3RD ST & S HOUSTON AVE,36.150591,-95.999044,,,,
6402,4stFkft,E 4TH ST S&S FRANKFORT AVE,528 E 4TH ST S & S FRANKFORT AVE,36.154591,-95.98423,,,,
6403,4stElg,E 4TH ST S&S ELGIN AVE,428 E 4TH ST S & S ELGIN AVE,36.154114,-95.98549,,,,
6405,3stBos,E 3RD ST S&S BOSTON AVE,35 E 3RD ST S & S BOSTON AVE,36.15361,-95.990751,,,,
6406,3stFkft,E 3RD ST S&S FRANKFORT AVE,473 E 3RD ST S & S FRANKFORT AVE,36.155474,-95.985528,,,,
6408,3stCin,E 3RD ST S&S CINCINNATI AVE,175 E 3RD ST S & S CINCINNATI AVE,36.154188,-95.989127,,,,
6409,3stFkft,E 3RD ST S&S FRANKFORT AVE,526 E 3RD ST S & S FRANKFORT AVE,36.155525,-95.984871,,,,
6411,32stGarr,E 32ND ST N&N GARRISON AVE,,36.200512,-95.985927,,,,
6412,2stGrnw,E 2ND ST S&S GREENWOOD AVE,626 E 2ND ST S & S GREENWOOD AVE,36.156846,-95.984137,,,,
6413,2stFkft,E 2ND ST S&S FRANKFORT AVE,526 E 2ND ST S & S FRANKFORT AVE,36.156468,-95.985303,,,,
6414,2stBld,E 2ND ST S&S BOULDER AVE,58 E 2ND ST S & S BOULDER AVE,36.154569,-95.990793,,,,
6415,1stCin,E 1ST ST S&S CINCINNATI AVE,,36.155529,-95.989975,,,,
6416,1stBos,1ST ST S&S BOSTON AVE,W 1ST ST S & S BOSTON AVE,36.155887,-95.990509,,,,
6417,10stBld,W 10TH ST&S BOULDER AVE,W 10TH ST/W 11TH ST & S BOULDER AVE,36.146329,-95.988315,,,,
6418,10stDet,E 10TH ST S&S DETROIT AVE,318 E 10TH ST S & S DETROIT AVE,36.148015,-95.983456,,,,
6420,10stCinS,E 10TH ST S&S CINCINNATI AVE,232 E 10TH ST S & S CINCINNATI AVE,36.147576,-95.984723,,,,
6421,10stCinN,E 10TH ST S&S CINCINNATI AVE,,36.147315,-95.985986,,,,
6422,10stBos,E 10TH ST S&S BOSTON AVE,,36.14715,-95.986055,,,,
6424,AqJHIEx,AQUARIUM DR & HOLIDAY INN,186 S AQUARIUM DR & AQUARIUM DR HOLIDAY INN EXPRESS,36.022154,-95.957865,,,,
6425,73st109a,E 73RD ST S&S 109TH E AVE,10753 E 73RD ST S & S 109TH E AVE,36.058822,-95.852904,,,,
6426,PeoVirg,N PEORIA AVE&E VIRGIN ST,,36.184934,-95.97578,,,,
6427,PeoLatP,N PEORIA AVE&E LATIMER PL,1233 N PEORIA AVE & E LATIMER PL,36.172024,-95.975543,,,,
6428,71stElw,W 71ST ST S&S ELWOOD AVE,265 W 71ST ST S & S ELWOOD AVE,36.060874,-95.990316,,,,
6429,Mem66st,S MEMORIAL DR&E 66TH ST S,6630 S MEMORIAL DR & E 66TH ST S,36.067142,-95.886556,,,,
6430,Lew13st,S LEWIS AVE&E 13TH ST S,,36.144228,-95.958153,,,,
6431,Lew8st,S LEWIS AVE&E 8TH ST S,844 S LEWIS AVE & E 8TH ST S,36.149409,-95.958277,,,,
6433,46stFftP,E 46TH ST N&N FRANKFORT PL,503 E 46TH ST N & N FRANKFORT PL,36.220558,-95.988859,,,,
6434,46stDet,E 46TH ST N&N DETROIT AVE,,36.220573,-95.991464,,,,
6435,46stBos,E 46TH ST N&N BOSTON AVE,61 E 46TH ST N & N BOSTON AVE,36.220537,-95.995394,,,,
6436,Dnvr47st,N DENVER AVE&W 47TH ST N,4701 N DENVER AVE & W 47TH ST N,36.221961,-95.998972,,,,
6437,Dnvr49st,N DENVER AVE&W 49TH ST N,4811 N DENVER AVE & W 49TH ST N,36.223464,-95.998942,,,,
6438,49stChey,DENVER & 49TH ST N,174 W 49TH ST N & N CHEYENNE AVE,36.224173,-95.997759,,,,
6439,Cin54st,MARTIN LUTHER KING JR BLVD &E 54TH ST N,5284 N CINCINNATI AVE & E 54TH ST N,36.231089,-95.993597,,,,
6440,46stDetP,E 46TH ST N&N DETROIT PL,328 E 46TH ST N & N DETROIT PL,36.22043,-95.990654,,,,
6441,46stFkft,E 46TH ST N&N FRANKFORT AVE,506 E 46TH ST N & N FRANKFORT AVE,36.220429,-95.988691,,,,
6442,46stGarr,E 46TH ST N&N GARRISON AVE,632 E 46TH ST N & N GARRISON AVE,36.220406,-95.986319,,,,
6444,Hart43st,N HARTFORD AVE&E 43RD ST N,4284 N HARTFORD AVE & E 43RD ST N,36.216366,-95.984587,,,,
6445,Hart42st,N HARTFORD AVE&E 42ND ST N,,36.214283,-95.98463,,,,
6446,Hart39st,N HARTFORD AVE&E 39TH ST N,,36.210006,-95.98448,,,,
6447,Hart39st,N HARTFORD AVE&E 39TH ST N,3704 N HARTFORD AVE & E 39TH ST N,36.206136,-95.984648,,,,
6448,Hart35st,N HARTFORD AVE&E 35TH ST N,3478 N HARTFORD AVE & E 35TH ST N,36.204276,-95.984877,,,,
6449,Hart33st,N HARTFORD AVE&E 33TH ST N,3280 N HARTFORD AVE & E 33TH ST N,36.202417,-95.985154,,,,
6450,Garr32st,N GARRISON AVE&E 32ND ST N,3180 N GARRISON AVE & E 32ND ST N,36.20018,-95.986369,,,,
6451,Garr30st,N GARRISON AVE&E 30TH ST N,2884 N GARRISON AVE & E 30TH ST N,36.196648,-95.986864,,,,
6452,Garr27Ct,GARRISON & 27TH ST N,N GARRISON AVE & E 27TH CT  N,36.194675,-95.986863,,,,
6453,Garr27Pl,N GARRISON AVE&E 27TH PL N,,36.193285,-95.986833,,,,
6454,MHKBGarr,MOHAWK BLVD&N GARRISON AVE,507 MOHAWK BLVD & N GARRISON AVE,36.192606,-95.988906,,,,
6455,CinMHKB,MARTIN LUTHER KING JR BLVD&MOHAWK BLVD,2612 N CINCINNATI AVE & MOHAWK BLVD,36.191931,-95.993601,,,,
6456,CinApch,MARTIN LUTHER KING JR BLVD&E APACHE ST,2572 N CINCINNATI AVE & E APACHE ST,36.190977,-95.993609,,,,
6457,CinZion,MARTIN LUTHER KING JR BLVD&E ZION ST,2486 N CINCINNATI AVE & E ZION ST,36.189349,-95.99361,,,,
6458,CinUteP,MARTIN LUTHER KING JR BLVD&E UTE PL,1930 N CINCINNATI AVE & E UTE PL,36.183231,-95.993579,,,,
6460,MaOkSt,N MAIN ST&W OKLAHOMA ST,1390 N MAIN ST & W OKLAHOMA ST,36.175179,-95.996933,,,,
6461,MaNwtS,N MAIN ST&W NEWTON ST,1288 N MAIN ST & W NEWTON ST,36.173129,-95.996936,,,,
6462,MaMrsh,N MAIN ST&W MARSHAL ST,1190 N MAIN ST & W MARSHAL ST,36.171269,-95.996934,,,,
6463,MaMrsh,N MAIN ST&W MARSHALL ST,1102 N MAIN ST & W MARSHALL ST,36.168925,-95.996934,,,,
6464,MaJasp,N MAIN ST&W JASPER ST,884 N MAIN ST & W JASPER ST,36.166786,-95.996933,,,,
6465,MaHask,N MAIN ST&W HASKELL PL,726 N MAIN ST & W HASKELL PL,36.165036,-95.99696,,,,
6466,CinQuee,MARTIN LUTHER KING JR BLVD&E QUEEN ST,1582 N CINCINNATI AVE & E QUEEN ST,36.178476,-95.993638,,,,
6468,Cin58st,MARTIN LUTHER KING JR BLVD &E 58TH ST N,5770 N CINCINNATI AVE & E 58TH ST N,36.237904,-95.993611,,,,
6469,56stFkft,E 56TH ST N&N FRANKFORT AVE,,36.234911,-95.987715,,,,
6470,Hart56st,56TH ST N & HARTFORD,5580 N HARTFORD AVE & E 56TH ST N,36.234578,-95.984599,,,,
6471,Hart52Pl,N HARTFORD AVE&E 52ND PL N,5214 N HARTFORD AVE & E 52ND PL N,36.22935,-95.984581,,,,
6473,Hart49Pl,N HARTFORD AVE&E 49TH PL N,,36.225666,-95.984582,,,,
6474,49stMa,49TH ST N & MAIN ST,1 W/E 49TH ST N & N MAIN ST,36.224257,-95.996092,,,,
6475,Dnvr48st,N DENVER AVE&W 48TH ST N,4782 N DENVER AVE & W 48TH ST N,36.223209,-95.999039,,,,
6476,46stChey,W 46TH ST N&N CHEYENNE AVE,,36.220444,-95.997825,,,,
6496,PeoVirg,PEORIA & VIRGIN,2046 N PEORIA AVE & E VIRGIN ST,36.183771,-95.976096,,,,
6497,PeoSemP,N PEORIA AVE&E SEMINOLE PL,1722 N PEORIA AVE & E SEMINOLE PL,36.180371,-95.975973,,,,
6499,Asp/Ken,W KENOSHA ST&N ASPEN AV,S 145TH EAST AVE & W GREELEY ST,36.060814,-95.815339,,,,
6500,THillW,TULSA HILLS SHOPPING CENTER,,36.0562,-96.004478,,,,
6501,41stYaOU,41ST & YALE-OU SCHUSTERMAN CENTER,AMOCO RD & E 41ST ST S,36.103141,-95.92565,,,,
6502,65stQuak,65TH ST N &  QUAKER AVE,N QUAKER AVE & E 65TH ST N,36.248092,-95.974073,,,,
6503,OU41stYa,41ST & YALE-OU SCHUSTERMAN CENTER,S YALE AVE & E 47TH ST S,36.102755,-95.925531,,,,
6507,Insp chr,INDIAN SPRINGS CHURCH,S 161ST EAST AVE & S ELM PL,35.976775,-95.797091,,,,
6508,7stjack,W. 7TH ST S & S JACKSON AVE,W 7TH ST S & S JACKSON AVE,36.147909,-95.999792,,,,
6509,49stUnio,S UNION AVE&W 49TH ST S,S UNION AVE W & W 48TH ST S,36.092498,-96.011663,,,,
6510,51st33rd,S 51ST S & 33RD W AVE,W 51ST ST S & S 32ND WEST AVE,36.090231,-96.029637,,,,
6511,61st33rd,33RD W AVE. & S 61ST ST,,36.07525,-96.029866,,,,
6512,33av61st,S 33RD W AVE & W 61ST ST S,S 33RD WEST AVE & W 59TH ST S,36.075519,-96.029587,,,,
6513,51st33av,51ST ST S & 33RD W AVE,W 51ST ST S & S 33RD WEST AVE,36.089826,-96.028921,,,,
6514,UniW49st,W 49TH ST S& S UNION AVE,S UNION AVE W & W 48TH ST S,36.092775,-96.011597,,,,
6515,Unio66st,S UNION AVE&W 66TH ST S,6563 S UNION AVE & W 66TH ST S,36.06854,-96.011608,,,,
6516,Unio63st,S UNION AVE&W 63RD ST S,6273 S UNION AVE & W 63RD ST S,36.071372,-96.011621,,,,
6517,Unio62st,S UNION AVE&W 62ND ST S,6195 S UNION AVE & W 62ND ST S,36.072465,-96.011623,,,,
6518,Unio61st,S UNION AVE&W 61ST ST S,5917 S UNION AVE & W 61ST ST S,36.077783,-96.0116,,,,
6519,Unio53st,S UNION AVE&W 53RD ST S,5225 S UNION AVE & W 53RD ST S,36.087497,-96.011603,,,,
6520,Unio41st,S 41ST ST & UNION,4039 S UNION AVE & W 41ST ST S,36.104933,-96.011544,,,,
6521,UniP37pl,S UNION PL W&W 37TH PL,3723 S UNION PL W & W 37TH PL,36.108921,-96.011897,,,,
6522,SW35st,SOUTHWEST BLVD&W 35TH ST S,3341 SOUTHWEST BLVD & W 35TH S S,36.11416,-96.009021,,,,
6523,SW31st,SOUTHWEST BLVD&W 31ST ST S,3071 SOUTHWEST BLVD & W 31ST ST S,36.118976,-96.007047,,,,
6526,SWGWN,SOUTHWEST BLVD & GOODWILL NORTHBOUN,,36.121523,-96.006761,,,,
6529,25stSW,W 25TH ST S&SOUTHWEST BLVD,1206 W 25TH ST S & SOUTHWEST BLVD,36.126203,-96.006541,,,,
6530,25stNoga,W 25TH ST S&S NOGALES AVE,876 W 25TH ST S & S NOGALES AVE,36.126229,-96.001578,,,,
6531,Jack25st,S JACKSON AVE&W 25TH ST S,2363 S JACKSON AVE & W 25TH ST S,36.128634,-95.999392,,,,
6532,23stJack,W 23RD ST S&S JACKSON AVE,731 W 23RD ST S & S JACKSON AVE,36.129914,-95.99986,,,,
6533,23stMayb,W 23RD ST S&S MAYBELLE AVE,905 W 23RD ST S & S MAYBELLE AVE,36.129922,-96.002178,,,,
6534,23stNoga,W 23RD ST S&S NOGALES AVE,1065 W 23RD ST S & S NOGALES AVE,36.129933,-96.00444,,,,
6535,23stOlym,W 23RD ST S&S OLYMPIA AVE,1165 W 23RD ST S & S OLYMPIA AVE,36.129926,-96.005424,,,,
6536,SW23st,SOUTHWEST BLVD&W 23RD ST S,2225 SOUTHWEST BLVD & W 23RD ST S,36.130515,-96.006843,,,,
6537,SW21st,SOUTHWEST BLVD&W 21ST ST S,2047 SOUTHWEST BLVD & W 21ST ST S,36.133706,-96.006856,,,,
6538,SW19st,SOUTHWEST BLVD&W 19TH ST S,1725 SOUTHWEST BLVD & W 19TH ST S,36.136162,-96.006886,,,,
6539,SW17st,SOUTHWEST BLVD&W 17TH ST S,1683 SOUTHWEST BLVD & W 17TH ST S,36.137933,-96.006834,,,,
6540,SWunkn,SOUTHWEST BLVD& 16TH ST S,1583 SOUTHWEST BLVD & UNKNOWN,36.139906,-96.006835,,,,
6545,19stSW,W 19TH ST S&SOUTHWEST BLVD,1266 W 19TH ST S & SOUTHWEST BLVD,36.135562,-96.006582,,,,
6546,SWGood,SOUTHWEST BLVD&GOODWILL INDUSTRIES,2800 SOUTHWEST BLVD & GOODWILL INDUSTRIES,36.12138,-96.00728,,,,
6547,SW35st,SOUTHWEST BLVD&W 35TH ST S,3510 SOUTHWEST BLVD & W 35TH ST S,36.113099,-96.009886,,,,
6548,UniPSW,S UNION PL&SOUTHWEST BLVD,3726 S UNION PL & SOUTHWEST BLVD,36.108873,-96.01205,,,,
6549,Unio40st,S UNION AVE&W 40TH ST S,4030 S UNION AVE & W 40TH ST S,36.105059,-96.011652,,,,
6550,Unio48st,S UNION AVE&W 48TH ST S,4806 S UNION AVE & W 48TH ST S,36.093188,-96.011728,,,,
6551,Unio58st,S UNION AVE&W 58TH ST S,5846 S UNION AVE & W 58TH ST S,36.078283,-96.011771,,,,
6552,Unio61st,S UNION AVE&W 61ST ST S,6146 S UNION AVE & W 61ST ST S,36.074694,-96.011826,,,,
6553,Unio62st,S UNION AVE&W 62ND ST S,6220 S UNION AVE & W 62ND ST S,36.072032,-96.011768,,,,
6554,Unio63st,S UNION AVE&W 63RD ST S,6318 S UNION AVE & W 63RD ST S,36.070948,-96.011766,,,,
6555,Unio66st,S UNION AVE&W 66TH ST S,6618 S UNION AVE & W 66TH ST S,36.068009,-96.011763,,,,
6556,Olym81st,S OLYMPIA AVE&W 81ST ST S,,36.048911,-96.004726,,,,
6558,33av61st,33RD W AVE. & S 61ST ST,3347 S 33RD W AVE & W 61ST ST S,36.075471,-96.030142,,,,
6559,41av56st,S 41ST W AVE&W 56TH ST S,5626 S 41ST W AVE & W 56TH ST S,36.081478,-96.038593,,,,
6560,57st57av,W 57TH ST S&S 57TH W AVE,3940 W 57TH ST S & S 57TH W AVE,36.080783,-96.036185,,,,
6561,57st37av,W 57TH ST S&S 37TH W AVE,3588 W 57TH ST S & S 37TH W AVE,36.080802,-96.03386,,,,
6562,57st35av,W 57TH ST S&S 35TH W AVE,3362 W 57TH ST S & S 35TH W AVE,36.080786,-96.031775,,,,
6563,51st33av,S 51ST ST & 33RD W AVE,,36.090575,-96.029361,,,,
6564,51st30av,W 51ST ST S&S 30TH W AVE,3000 W 51ST ST S & S 30TH W AVE,36.08982,-96.026337,,,,
6565,51st26av,W 51ST ST S&S 26TH W AVE,2520 W 51ST ST S & S 26TH W AVE,36.089803,-96.021646,,,,
6568,SW43pl,SOUTHWEST BLVD&W 43RD PL S,4285 SOUTHWEST BLVD & W 43RD PL S,36.101976,-96.026671,,,,
6574,33av45st,S 33RD W AVE&W 45TH ST S,4416 S 33RD W AVE & W 45TH ST S,36.098842,-96.029621,,,,
6577,51st27av,W 51ST ST S&S 27TH W AVE,2735 W 51ST ST S & S 27TH W AVE,36.089917,-96.02383,,,,
6578,51st31av,W 51ST ST S&S 31ST W AVE,3105 W 51ST ST S & S 31ST W AVE,36.089945,-96.027612,,,,
6580,33av45st,S 33RD W AVE&W 45TH ST S,4407 S 33RD W AVE & W 45TH ST S,36.099466,-96.02943,,,,
6582,57st38av,W 57TH ST S&S 38TH W AVE,3845 W 57TH ST S & S 38TH W AVE,36.080863,-96.035578,,,,
6583,41av56pl,S 41ST W AVE&W 56TH PL S,5601 S 41ST W AVE & W 56TH PL S,36.082541,-96.038483,,,,
6584,QT 49,SOUTHWEST BLVD QUIK TRIP,6002 S 49TH W AVE & W 60TH ST S,36.077005,-96.047632,,,,
6586,61st29av,W 61ST ST S&S 29TH W AVE,3082 W 61ST ST S & S 29TH W AVE,36.075284,-96.02489,,,,
6587,FLAG1,E 3RD ST S&S PEORIA AVE,,36.156745,-95.975881,,,,
6588,FLAG2,E 21ST ST S&S 103RD E AVE,E 21ST ST S & S 103RD EAST AVE,36.133356,-95.862221,,,,
6589,FLAG3,E CHARLES PAGE BLVD&S ADAMS RD,E CHARLES PAGE BLVD & S 103RD EAST AVE,36.13778,-96.097926,,,,
6592,FLAG6,E PINE ST&N MINGO RD,,36.177082,-95.868801,,,,
6593,FLAG7,E PINE ST&N MINGO RD,,36.176984,-95.86861,,,,
6594,FLAG8,S 101ST E AVE&SOUTHCREST,,36.036305,-95.86472,,,,
6595,FLAG9,S 101ST E AVE&E 88TH ST,,36.034753,-95.864719,,,,
6596,FLAG10,W ARCHER ST&N DENVER AVE,W ARCHER ST & N ELWOOD AVE,36.156087,-95.996752,,,,
6597,FLAG11,W ARCHER ST&N DENVER AVE,W ARCHER ST & N ELWOOD AVE,36.156052,-95.996729,,,,
6599,FLAG13,S GARNETT RD&E 71ST ST S,S 113TH EAST AVE & S GARNETT RD,36.060809,-95.851029,,,,
6604,FLAG18,E PINE S&N PEORIA AVE,E PINE ST & N OWASSO AVE,36.176943,-95.975877,,,,
6605,FLAG19,E 41ST ST S&S SHERIDAN RD,E 41ST ST S & S 68TH EAST AVE,36.104467,-95.9041,,,,
6608,FLAG22,MARTIN LUTHER KING JR BLVD&E VIRGIN ST,N CINCINNATI AVE & E VIRGIN ST,36.184204,-95.993576,,,,
6609,FLAG23,W 51ST ST S&S UNION AVE,W 51ST ST S & S TACOMA AVE W,36.08982,-96.01154,,,,
6610,FLAG24,W 51ST ST S& S UNION AVE,W 51ST ST S & S TACOMA AVE W,36.089784,-96.01154,,,,
6611,FLAG25,E VIRGIN ST&N FRANKFORT AVE,,36.184171,-95.988975,,,,
6612,FLAG26,E VIRGIN ST&&NFRANKFORT AVE,E VIRGIN ST & N FRANKFORT AVE,36.184242,-95.988975,,,,
6613,FLAG27,E PINE ST&N MINGO RD,,36.177002,-95.868621,,,,
6615,FLAG29,SOUTHWEST BLVD&W 23RD ST S,SOUTHWEST BLVD & W 22ND PL S,36.129845,-96.007019,,,,
6616,FLAG30,E 51ST ST S&S YALE AVE,,36.089781,-95.922012,,,,
6617,FLAG31,E 71ST ST S&S MINGO RD,E 71ST ST S & S 97TH EAST AVE,36.060884,-95.868437,,,,
6618,FLAG32,2ND & ADAMS RD,E 2ND ST & N ADAMS RD,36.13842,-96.101383,,,,
6619,FLAG33,2ND & ADAMS RD,E 2ND ST & N ADAMS RD,36.138483,-96.101372,,,,
6620,FLAG34,S GARNETT RD&E ADMIRAL PL,E ADMIRAL PL & S. GARNETT,36.160757,-95.851221,,,,
6621,FLAG41,S GARNETT RD&E ADMIRAL ST,S GARNETT RD & E ADMIRAL PL,36.160525,-95.851153,,,,
6622,FLAG42,E ADMIRAL PL&N MINGO RD,E ADMIRAL PL & N 93RD EAST AVE,36.160749,-95.870076,,,,
6623,FLAG43,E ADMIRAL PL&S MINGO RD,E ADMIRAL PL & N 93RD EAST AVE,36.16069,-95.867283,,,,
6624,FLAG41,E 21ST ST S&S 101ST E AVE,E 21ST ST S & S 99TH EAST AVE,36.133549,-95.864632,,,,
6625,FLAG40,E 21ST ST S&S 101ST E AVE,E 21ST ST S & S 101ST EAST AVE,36.133371,-95.864419,,,,
6626,FLAG38,E PINE ST&N UTICA AVE,,36.177061,-95.96725,,,,
6627,FLAG39,E PINE ST&N UTICA AVE,,36.176999,-95.967104,,,,
6628,FLAG37,E PINE ST&N HARVARD AVE,,36.177127,-95.940357,,,,
6629,FLAG44,W EDISON ST&N 41ST W AVE,W EDISON ST & N 42ND WEST AVE,36.161164,-96.038275,,,,
6630,FLAG44,W EDISON ST&N 41ST W AVE,W EDISON ST & N 42ND WEST AVE,36.161092,-96.038274,,,,
6631,FLAG36,E 46TH ST N&MARTIN LUTHER KING JR BLVD,E 46TH ST N & N CINCINNATI PL,36.220438,-95.993381,,,,
6632,FLAG45,E 46TH ST N&MARTIN LUTHER KING JR BLVD,E 46TH ST N & N CINCINNATI AVE,36.220518,-95.99355,,,,
6633,FLAG35,E 49TH ST N& MARTIN LUTHER KING JR BLVD,E 49TH ST N & N CINCINNATI AVE,36.224232,-95.993598,,,,
6634,FLAG46,E 49TH ST N&MARTIN LUTHER KING JR BLVD,E 49TH ST N & N CINCINNATI AVE,36.224161,-95.993598,,,,
6636,FLAG48,E 63RD ST N& MARTIN LUTHER KING JR BLVD,E 63RD ST N & N CINCINNATI AVE,36.244929,-95.993578,,,,
6637,FLAG49,65TH ST N & ELWOOD,N ELWOOD AVE & W 64TH PL N,36.248216,-96.000239,,,,
6638,COLU41ST,COLUMBIA & 41ST ST N,N COLUMBIA AVE & E 41ST ST N,36.212936,-95.951405,,,,
6639,DBAY1,DAS BAY 01,319 S DENVER AVE,36.151795,-95.993314,,,,
6640,DBAY2,DAS BAY 2,319 S DENVER AVE,36.151727,-95.993501,,,,
6641,DBAY3,DAS BAY 03,319 S DENVER AVE,36.151663,-95.99369,,,,
6642,DBAY4,DAS BAY 04,319 S DENVER AVE,36.151617,-95.993882,,,,
6643,DBAY5,DAS BAY 05,319 S DENVER AVE,36.151675,-95.99403,,,,
6644,DBAY6,DAS BAY 06,319 S DENVER AVE,36.151782,-95.994092,,,,
6645,DBAY7,DAS BAY 07,319 S DENVER AVE,36.151899,-95.994013,,,,
6646,DBAY8,DAS BAY 8,319 S DENVER AVE,36.151996,-95.993864,,,,
6647,DBAY9,DAS BAY9,319 S DENVER AVE,36.152059,-95.993678,,,,
6648,DBAY10,DAS BAY 10,319 S DENVER AVE,36.152124,-95.993492,,,,
6649,MMS1,MMS BAY 01,7952 E 33RD ST S,36.114059,-95.888785,,,,
6650,MBAY2,MMS BAY2,7952 E 33RD ST S,36.113915,-95.888784,,,,
6651,MMS3,MMS BAY 03,7952 E 33RD ST S,36.113752,-95.888783,,,,
6652,MMS4,MMS BAY 04,7952 E 33RD ST S,36.113755,-95.888971,,,,
6653,MMS5,MMS BAY 05,7952 E 33RD ST S,36.113918,-95.888974,,,,
6654,MBAY6,MMS BAY 06,7952 E 33RD ST S,36.114062,-95.888976,,,,
6655,MMS 07,MMS BAY 07,7952 E 33RD ST S,36.114062,-95.889147,,,,
6656,MBAY8,MMS BAY8,7952 E 33RD ST S,36.113889,-95.889145,,,,
6658,MMS 10,MMS BAY10,7952 E 33RD ST S,36.113781,-95.888596,,,,
6661,Ma43Pl,E MAIN ST & E 43RD PL S,400 E MAIN ST\E 43RD PL S & S 4TH ST,36.022502,-95.965477,,,,
6662,Aqua,AQUARIUM DR & EB ST,,36.024467,-95.959133,,,,
6663,Lew81St,S LEWIS AVE&E 81ST ST S,8318 S LEWIS AVE & E 81ST ST S,36.046073,-95.957952,,,,
6664,Lew81St,S LEWIS AVE & E 81ST ST S,8226 S LEWIS AVE & E 81ST ST S,36.043556,-95.957881,,,,
6665,71StLou,E 71ST ST S & S LOUISVILLE AVE,3599 E 71ST ST S & S LOUISVILLE AVE/S OSWEGO AVE,36.060985,-95.935155,,,,
6666,49av3st,S 49TH W AVE & W 3RD ST,316 S 49TH W AVE & W 3RD ST,36.152314,-96.047271,,,,
6667,49av3st,S 49TH W AVE & W 3RD ST,259 S 49TH W AVE & W 3RD ST,36.153291,-96.047128,,,,
6668,CCIndp,COUNTRY CLUB DR & W INDEPENDENCE ST,796 COUNTRY CLUB DR & W INDEPENDENCE ST,36.165596,-96.003235,,,,
6669,CCHask,COUNTRY CLUB DR & HASKELL PL,773 COUNTRY CLUB DR & HASKELL PL,36.165562,-96.003125,,,,
6670,57st33av,W 57TH ST & S 33RD W AVE,3333 W 57TH ST & S 33RD W AVE,36.080878,-96.030094,,,,
6671,41av55pl,S 41ST W AVE & W 55TH PL,5556 S 41ST W AVE & W 55TH PL,36.082982,-96.038612,,,,
6673,Taco51st,S TACOMA AVE & W 51ST ST,4900 S TACOMA AVE & W 51ST ST,36.090208,-96.010228,,,,
6674,Taco51st,S TACOMA AVE & W 51ST ST,4927 S TACOMA AVE & W 51ST ST,36.090627,-96.010103,,,,
6675,49stOlym,W 49TH ST & S OLYMPIA AVE,1000 W 49TH ST & S OLYMPIA AVE,36.092291,-96.004598,,,,
6676,49stmayb,W 49TH ST & S MAYBELLE AVE,800 W 49TH ST & S MAYBELLE AVE,36.09228,-96.001773,,,,
6677,Peo55st,S PEORIA AVE & E 55TH ST S,5327 S PEORIA AVE & E 55TH ST S,36.084551,-95.975679,,,,
6678,Ya51st,S YALE AVE & E 51ST ST S,5102 S YALE AVE & E 51ST ST S,36.089425,-95.922446,,,,
6679,61stYa,E 61ST ST S & S YALE AVE,4900 E 61ST ST S & S YALE AVE,36.075206,-95.921665,,,,
6680,51stSher,E 51ST ST S & S SHERIDAN RD,6113 E 51ST ST S & S SHERIDAN RD,36.089971,-95.905261,,,,
6681,Sher44st,S SHERIDAN RD & E 44TH ST S,4374 S SHERIDAN RD & E 44TH ST S,36.099821,-95.904599,,,,
6682,38stLkwd,E 38TH ST S & S LAKEWOOD AVE,3801 E 38TH ST S & S LAKEWOOD AVE,36.109086,-95.908395,,,,
6683,Mem53st,S MEMORIAL DR & E 53RD ST S,5332 S MEMORIAL DR & E 53RD ST S,36.087049,-95.886675,,,,
6684,Mem58st,S MEMORIAL DR & E 58TH ST S,5800 S MEMORIAL DR & E 58TH ST S,36.080176,-95.886603,,,,
6685,107a109a,S 107TH E AVE & 63RD ST S,6219 S 107TH E AVE/S109TH E AVE,36.073429,-95.857682,,,,
6686,71st73av,E 71ST ST S & S 73RD E AVE,7300 E 71ST ST S & S 73RD E AVE,36.060732,-95.895145,,,,
6687,71st78av,E 71ST ST S & S 78TH E AVE,7800 E 71ST ST S & S 78TH E AVE,36.060736,-95.89006,,,,
6688,Garn48ST,S GARNETT RD & E 48TH ST S,4750 S GARNETT RD & E 48TH ST S,36.093256,-95.851208,,,,
6689,Mem46Pl,S MEMORIAL DR & E 46TH PL S,4423 S MEMORIAL DR & E 46TH PL S,36.098164,-95.886429,,,,
6690,Mem44st,S MEMORIAL DR & E 44TH ST S,4343 S MEMORIAL DR & E 44TH ST S,36.099769,-95.886405,,,,
6691,Mem42st,S MEMORIAL DR & E 42ND ST S,4201 S MEMORIAL DR & E 42ND ST S,36.102907,-95.886446,,,,
6692,Mngo41st,S MINGO RD & E 41ST ST S,4100 S MINGO RD & E 41ST ST S,36.104126,-95.868798,,,,
6693,Mngo42st,S MINGO RD & E 42RD ST S,4201 S MINGO RD & E 42RD ST S,36.10217,-95.868779,,,,
6694,31st116a,E 31ST ST S & S 116TH E AVE,11656 E 31ST ST S & S 116TH E AVE,36.118864,-95.845756,,,,
6695,31st120p,E 31ST ST S & S 120TH E PL,12048 E 31ST ST S & S 120TH E PL,36.118857,-95.842513,,,,
6697,GarnArch,N GARNETT RD & E ARCHER ST,153 N GARNETT RD & E ARCHER ST,36.163629,-95.851067,,,,
6698,GarnArch,N GARNETT RD & E ARCHER PL,11200 N GARNETT RD & & E ARCHER PL,36.163629,-95.851274,,,,
6699,129a7st,S 129TH E AVE & E 7TH ST,702 S 129TH E AVE & E 7TH ST,36.151208,-95.833379,,,,
6700,11st107a,E 11TH ST S & S 107TH E AVE,10543 E 11TH ST S & S 107TH E AVE,36.148152,-95.858169,,,,
6701,137a31st,S 137TH E AVE & E 31ST ST S,3065 S 137TH E AVE & E 31ST ST S,36.119146,-95.823704,,,,
6702,31st129a,E 31ST ST S & S 129TH E AVE,12920 E 31ST ST S & S 129TH E AVE,36.118356,-95.831793,,,,
6703,31st124a,E 31ST ST S & S 124TH E AVE,12224 E 31ST ST S & S 124TH E AVE,36.119094,-95.839181,,,,
6704,MemAdm,MEMORIAL & ADMIRAL,2 S MEMORIAL DR & E ADMIRAL PL,36.159959,-95.886845,,,,
6705,Mem2st,S MEMORIAL DR & EAST 2ND ST,218 S MEMORIAL DR & EAST 2ND ST,36.157794,-95.886839,,,,
6706,Mem7st,S MEMORIAL DR & EAST 7TH ST,700 S MEMORIAL DR & EAST 7TH ST,36.151276,-95.886791,,,,
6707,Mem15st,S MEMORIAL DR&E 15TH ST S,1510 S MEMORIAL DR & E 15TH ST S,36.14037,-95.886772,,,,
6708,Sher21st,S SHERIDAN RD & E 21ST ST S,2104 S SHERIDAN RD & E 21ST ST S,36.132955,-95.904698,,,,
6709,15stSher,S SHERIDAN RD&E 15TH ST S,6247 E 15TH ST S & S SHERIDAN RD,36.140792,-95.905256,,,,
6710,15stSher,E 15TH ST S & S SHERIDAN RD,6101 E 15TH ST S & S SHERIDAN RD,36.140739,-95.908175,,,,
6711,15stJop,E 15TH ST S & S JOPLIN AVE,6116 E 15TH ST S & S JOPLIN AVE,36.140589,-95.908373,,,,
6712,AdmLkwd,E ADMIRAL PL & N LAKEWOOD AVE,5931 E ADMIRAL PL & N LAKEWOOD AVE,36.160912,-95.910057,,,,
6713,4plPitt,E 4TH PL S & S PITTSBURG AVE,3929 E 4TH PL S & S PITTSBURG AVE,36.155124,-95.931807,,,,
6714,Harv11st,S HARVARD AVE&E 11TH ST S,1100 S HARVARD AVE & E 11TH ST S,36.147592,-95.940494,,,,
6715,Harv21st,S HARVARD AVE&E 21ST ST S,1943 S HARVARD AVE & E 21ST ST S,36.133564,-95.940218,,,,
6716,Harv13st,S HARVARD AVE & E 13TH ST S,1300 S HARVARD AVE & E 13TH ST S,36.143811,-95.940486,,,,
6717,21stLou,E 21ST ST S & S LOUISVILLE AVE,3664 E 21ST ST S & S LOUISVILLE AVE,36.133222,-95.936114,,,,
6718,Harv30st,S HARVARD AVE & E 30TH ST S,3000 S HARVARD AVE & E 30TH ST S,36.120396,-95.940414,,,,
6719,Harv31st,S HARVARD AVE & E 31ST ST S,3112 S HARVARD AVE & E 31ST ST S,36.11818,-95.94039,,,,
6721,PineVand,E PINE ST & N VANDALIA AVE,4704 E PINE ST & N VANDALIA AVE,36.177054,-95.924456,,,,
6722,PineLou,E PINE ST & N LOUISVILLE AVE,3601 E PINE ST & N LOUISVILLE AVE,36.177203,-95.937607,,,,
6723,PineBmAv,E PINE ST & N BIRMIINGHAM PL,2600 E PINE ST & N BIRMIINGHAM PL,36.177087,-95.953022,,,,
6724,PeoRead,N PEORIA AVE & E READING ST,1717 N PEORIA AVE & E READING ST,36.180573,-95.975665,,,,
6725,CinOkla,MARTIN LUTHER KING JR BLVD  & E OKLAHOMA PL,1400 N CINCINATTI AVE & E OKLAHOMA PL,36.17568,-95.993635,,,,
6726,MHKBCin,MOHAWK BLVD & MARTIN LUTHER KING JR BLVD,200 MOHAWK BLVD & N CINCINATTI AVE E,36.192401,-95.993066,,,,
6727,MHKBFkft,MOHAWK BLVD & N FRANKFORT AVE,500 MOHAWK BLVD & N FRANKFORT AVE,36.192519,-95.988738,,,,
6728,Lew30st,N LEWIS AVE & EAST 30TH ST N,3009 N LEWIS AVE & EAST 30TH ST N,36.197526,-95.958078,,,,
6729,Lew36st,N LEWIS AVE & E 36TH ST N,3520 N LEWIS AVE & E 36TH ST N,36.205831,-95.95834,,,,
6730,Peo33st,N PEORIA AVE & EAST 33RD ST N,3248 N PEORIA AVE & EAST 33RD ST N,36.202117,-95.97567,,,,
6731,36stGarr,E 36TH ST N & N GARRISON AVE,558 E 36TH ST N & N GARRISON AVE,36.205887,-95.986274,,,,
6732,36stGarr,E 36TH ST N & N GARRISON AVE,541 E 36TH ST N & N GARRISON AVE,36.206025,-95.986332,,,,
6733,36stGarr,E 36TH ST N & N GARRISON AVE,401 E 36TH ST N & N GARRISON AVE,36.206027,-95.988634,,,,
6734,36stElg,E 36TH ST N & N ELGIN AVE,400 E 36TH ST N & N ELGIN AVE,36.205877,-95.989336,,,,
6735,Cin51pl,MARTIN LUTHER KING JR BLVD & E 51ST PL N,5117 N CINCINATI AVE & E 51ST PL N,36.228346,-95.993463,,,,
6736,Hart51pl,N HARTFORD AVE & E 51ST PL N,5016 N HARTFORD AVE & E 51ST PL N,36.227806,-95.984584,,,,
6737,Cin54st,MARTIN LUTHER KING JR BLVD & E 54TH ST N,5401 N CINCINATI AVE & E 54TH ST N,36.231605,-95.993465,,,,
6738,Cin55st,MARTIN LUTHER KING JR BLVD & E 55TH PL N,5501 N CINCINATI AVE & E 55TH PL N,36.234029,-95.993467,,,,
6739,15stBos,E 15TH ST S & S BOSTON AVE,23 E 15TH ST S & S BOSTON AVE,36.140676,-95.98533,,,,
6740,Bld16st,S BOULDER AVE W & W 16TH ST S,1600 S BOULDER AVE W & W 16TH ST S,36.13943,-95.988531,,,,
6741,Bld17st,S BOULDER AVE W & W 17TH ST S,1700 S BOULDER AVE W & W 17TH ST S,36.137699,-95.988561,,,,
6742,21stCin,E 21ST ST S & S CINCINATTI AVE,,36.133476,-95.98314,,,,
6743,Bld21st,S BOULDER PARK DR & W 21ST ST S,1867 S BOULDER PARK DR & W 21ST ST S,36.134431,-95.988856,,,,
6744,Peo52st,N PEORIA AVE & E 52ND ST N,5130 N PEORIA AVE & E 52ND ST N,36.229495,-95.975653,,,,
6746,Hart46st,N HARTFORD AVE & E 46TH ST N,4532 N HARTFORD AVE & E 46TH ST N,36.22014,-95.984595,,,,
6747,IndpElg,E INDEPENDENCE ST & N ELGIN AVE,266 E INDEPENDENCE ST & N ELGIN AVE,36.166031,-95.991503,,,,
6750,41stBmPl,E 41ST ST S & S BIRMINGHAM PL,2601 E 41ST ST S & S BIRMINGHAM PL,36.104325,-95.952761,,,,
6751,101S/Elm,101ST S & ELM PL (EAST SIDE),,36.016905,-95.79691,,,,
6753,121_ELM,121ST ST S & ELM,,35.988589,-95.79723,,,,
6756,FLAG50,E 3RD ST S&S ROCKFORD AVE,,36.156594,-95.971674,,,,
6758,66_MING,E 66TH ST S&S MINGO RD,E 66TH ST S & S MINGO RD,36.068242,-95.868486,,,,
6759,ARDBAY3,ARRIVE DAS BAY 3,,36.151666,-95.993684,,,,
6760,ARDBAY7,ARRIVE DAS 7,,36.151899,-95.994013,,,,
6762,ADAS10,ARRIVE DAS BAY 10,,36.152095,-95.993461,,,,
6763,OU CLIN,OU CLINIC,,36.206966,-95.98499,,,,
6765,ARDBAY2,ARRIVE DAS BAY 2,,36.151711,-95.993471,,,,
6766,FLAG 52,WESTVIEW VIEW CLINIC - TO DOWNTOWN,,36.206773,-95.995067,,,,
6767,FLAG 53,OSAGE CASINO (EB),,36.207929,-96.002416,,,,
6768,FLAG 54,OU WAYMAN TISDALE CLINIC,,36.207128,-95.984956,,,,
6769,FLAG 55,AIRPORT,,36.190014,-95.890038,,,,
6770,FLAG 56,ST. FRANCIS EASTBOUND,,36.073054,-95.918041,,,,
6771,FLAG 57,ST. FRANCIS WESTBOUND,,36.073116,-95.918086,,,,
6772,FLAG 58,WOODLAND HILLS MALL 318 FROM MID,,36.065239,-95.882349,,,,
6773,FLAG 59,WOODLAND HILLS MALL EB471,,36.065203,-95.882349,,,,
6774,FLAG 60,WOODLAND HILLS MALL WB 471,,36.065194,-95.882248,,,,
6775,CRSTVIEW,CRESTVIEW FROM DOWNTOWN,,36.20292,-95.99338,,,,
6776,CRESTV,CRESTVIEW TO DOWNTOWN,,36.20292,-95.993357,,,,
6777,FLAG 63,508 CC TCC,,36.04555,-95.863295,,,,
6778,FLAG 64,508 CL 101ST E AVE /UNNAMED,,36.036305,-95.86472,,,,
6779,FLAG 65,508 CL 101ST E AVE & 88TH ST S,,36.034751,-95.864716,,,,
6780,MEM93RD ,MEMORIAL AND 93RD,,36.0282,-95.886371,,,,
6781,SWW17,SOUTHWEST BLVD & W 17TH NB,,36.137903,-96.006829,,,,
6782,UNIW78,S UNION AVE & W 78TH STREET S,,36.050763,-96.011738,,,,
6783,BLD15THW,BOULDER & 15TH STREET WESTSIDE,,36.140905,-95.988595,,,,
6784,BLD17,BOULDER AND 17TH EAST SIDE,,36.13816,-95.988375,,,,
6785,BLD18,BOULDER AND 18TH STREET EAST,,36.136267,-95.988407,,,,
6786,36NLEW,36TH STREET NORTH & LEWIS FD FLAG STOP,,36.206396,-95.957769,,,,
6787,36NPEO,36TH ST N & PEORIA FD FLAG STOP,,36.206285,-95.97511,,,,
6793,FLAG68,PITTSBURGH AND ADMRIAL OUTBOUND,,36.160642,-95.931416,,,,
6794,FLAG68,3RD AND LEWIS EB,,36.156506,-95.959146,,,,
6795,FLAG69,3RD AND LEWIS SB,,36.15647,-95.958141,,,,
6799,COLLBACD,COLLBACD,,36.053369,-95.793564,,,,
6803,3RD&LEW,3RDLEWIS,,36.15626,-95.95829,,,,
6804,4TH&LEW,4TH&LEWIS,,36.15549,-95.9583,,,,
6805,LEW&4TH,LEWIS&4TH,,36.155436,-95.958154,,,,
6806,LEW&6TH,LEWIS&6TH,,36.15194,-95.95809,,,,
6807,FLAG72,PEORIA & 5TH,,36.154746,-95.975548,,,,
6808,FLAG 73,PEORIA & 6TH,,36.152102,-95.97564,,,,
6809,SSREASOR,SAND SPG REASORS,,36.108158,-96.115104,,,,
6825,36THINDP,S INDIANAPOLIS& E 36TH ST,,36.11149,-95.93877,,,,
6826,36THLOU,S LOUISVILLE & E 36TH ST,,36.11153,-95.93572,,,,
6827,36THOSW,S OSWEGO & E 36TH ST,,36.11154,-95.93221,,,,
6828,YA36ST,S YALE & E 36TH ST,,36.11165,-95.92282,,,,
6829,36THPITT,S PITTSBURGH & E 36TH ST,,36.11165,-95.93126,,,,
6830,36THNHVN,S NEW HAVEN & E 36TH ST,,36.11165,-95.93396,,,,
6831,36THLOU,S LOUISVILLE & E 36TH ST,,36.11164,-95.93648,,,,
6832,36THINDP,S INDIANAPOLIS & E 36TH ST,,36.11163,-95.93936,,,,
6834,PINEZUNI,E PINE ST & N ZUNIS,,36.17723,-95.95969,,,,
